{
"type": "FeatureCollection",
"name": "LOCALES COMERCIALES",
"crs": { "type": "name", "properties": { "name": "urn:ogc:def:crs:EPSG::32718" } },
"features": [
{ "type": "Feature", "properties": { "ID": 1.0, "RUT": "76353779-K", "NOMBRE": "SOCIEDAD COMERCIAL NAR SUR LTDA", "DIRECCION": "21 DE MAYO 1436 ,VICTORIA,CHILE.", "GIRO": "VENTA DE REPUESTOS Y ACCESORIOS DE VEHICULOS", "ESTADO": "POTENCIAL CLIENTE", "COMUNA": "VICTORIA", "REGION": "REGION DE LA ARAUCANIA", "MES": "INICIAL", "PAIS": "CONTINENTE", "x": -72.334839862699994, "y": -38.237033537400002 }, "geometry": { "type": "Point", "coordinates": [ -72.334839862679402, -38.237033537361597 ] } },
{ "type": "Feature", "properties": { "ID": 2.0, "RUT": "76570955-5", "NOMBRE": "CAR FRENOS Y ACCESORIOS LTDA", "DIRECCION": "21 DE MAYO 1440 ,VICTORIA,CHILE.", "GIRO": "VENTA DE REPUESTOS Y ACCESORIOS DE VEHICULOS", "ESTADO": "POTENCIAL CLIENTE", "COMUNA": "VICTORIA", "REGION": "REGION DE LA ARAUCANIA", "MES": "INICIAL", "PAIS": "CONTINENTE", "x": -72.334851904100006, "y": -38.237042556299997 }, "geometry": { "type": "Point", "coordinates": [ -72.334851904101896, -38.237042556316403 ] } },
{ "type": "Feature", "properties": { "ID": 3.0, "RUT": "77266681-0", "NOMBRE": "SOCIEDAD COMERCIAL MALLECO LTDA", "DIRECCION": "AV. ARTURO PRAT 1114 ,VICTORIA,CHILE.", "GIRO": "REPUESTOS Y ACCESORIOS DE VEHICULOS Y ARTICULOS DE FERRETERIA", "ESTADO": "POTENCIAL CLIENTE", "COMUNA": "VICTORIA", "REGION": "REGION DE LA ARAUCANIA", "MES": "INICIAL", "PAIS": "CONTINENTE", "x": -72.336646233099998, "y": -38.233786065300002 }, "geometry": { "type": "Point", "coordinates": [ -72.3366462330834, -38.233786065250001 ] } },
{ "type": "Feature", "properties": { "ID": 4.0, "RUT": "77242273-3", "NOMBRE": "INVERSIONES FERREMAQ SUR SPA", "DIRECCION": "AV. ARTURO PRAT 1197 ,VICTORIA,CHILE.", "GIRO": "FERRETERIA Y MATERIALES DE CONSTRUCCION", "ESTADO": "POTENCIAL CLIENTE", "COMUNA": "VICTORIA", "REGION": "REGION DE LA ARAUCANIA", "MES": "INICIAL", "PAIS": "CONTINENTE", "x": -72.335990562099994, "y": -38.2343840379 }, "geometry": { "type": "Point", "coordinates": [ -72.335990562116606, -38.234384037895097 ] } },
{ "type": "Feature", "properties": { "ID": 5.0, "RUT": "77059333-6", "NOMBRE": "IMPORTADORA DIANA SPA", "DIRECCION": "AV. ARTURO PRAT 1472,VICTORIA,CHILE.", "GIRO": "VENTA DE REPUESTOS, ACCESORIOS AUTOMOTRICES Y ART. FERRETERIA", "ESTADO": "POTENCIAL CLIENTE", "COMUNA": "VICTORIA", "REGION": "REGION DE LA ARAUCANIA", "MES": "INICIAL", "PAIS": "CONTINENTE", "x": -72.336743554400002, "y": -38.2372844247 }, "geometry": { "type": "Point", "coordinates": [ -72.336743554439195, -38.237284424724699 ] } },
{ "type": "Feature", "properties": { "ID": 6.0, "RUT": "NO INDICA RUT", "NOMBRE": "WALDO FERNANDO BAEZA NAOUR", "DIRECCION": "GUACOLDA 1339, VICTORIA,CHILE.", "GIRO": "TALLER MECANICO", "ESTADO": "POTENCIAL CLIENTE", "COMUNA": "VICTORIA", "REGION": "REGION DE LA ARAUCANIA", "MES": "INICIAL", "PAIS": "CONTINENTE", "x": -72.341426633200001, "y": -38.236053983399998 }, "geometry": { "type": "Point", "coordinates": [ -72.341426633226206, -38.236053983417399 ] } },
{ "type": "Feature", "properties": { "ID": 7.0, "RUT": "76147777-3", "NOMBRE": "GABRIEL CARRASCO VIDAL GASERI MEC. AUTO. EIRL", "DIRECCION": "AVDA DARTNELL 1065 ,VICTORIA,CHILE.", "GIRO": "SERVICIO DE MANTENCION DE VEHICULOS", "ESTADO": "POTENCIAL CLIENTE", "COMUNA": "VICTORIA", "REGION": "REGION DE LA ARAUCANIA", "MES": "INICIAL", "PAIS": "CONTINENTE", "x": -72.339230517999994, "y": -38.233015737599999 }, "geometry": { "type": "Point", "coordinates": [ -72.339230518007895, -38.2330157375563 ] } },
{ "type": "Feature", "properties": { "ID": 8.0, "RUT": "NO INDICA RUT", "NOMBRE": "EDUARDO DEL CARMEN PEREZ CHAVEZ", "DIRECCION": "BUERAS 968 ,VICTORIA,CHILE.", "GIRO": "VENTA DE REPUESTOS Y ACCESORIOS DE VEHICULOS", "ESTADO": "POTENCIAL CLIENTE", "COMUNA": "VICTORIA", "REGION": "REGION DE LA ARAUCANIA", "MES": "INICIAL", "PAIS": "CONTINENTE", "x": -72.3269323751, "y": -38.2439820576 }, "geometry": { "type": "Point", "coordinates": [ -72.326932375063393, -38.2439820576068 ] } },
{ "type": "Feature", "properties": { "ID": 9.0, "RUT": "NO INDICA RUT", "NOMBRE": "CRISTIAN ANTONIO HENRIQUEZ GUTIERREZ", "DIRECCION": "CHORRILLOS 1053 ,VICTORIA,CHILE.", "GIRO": "VENTA PIEZAS, PARTES Y ACCESORIOS DE VEHICULOS", "ESTADO": "POTENCIAL CLIENTE", "COMUNA": "VICTORIA", "REGION": "REGION DE LA ARAUCANIA", "MES": "INICIAL", "PAIS": "CONTINENTE", "x": -72.329343133799995, "y": -38.232865464600003 }, "geometry": { "type": "Point", "coordinates": [ -72.329343133824906, -38.232865464573003 ] } },
{ "type": "Feature", "properties": { "ID": 10.0, "RUT": "NO INDICA RUT", "NOMBRE": "RODRIGO IVAN HENRIQUEZ NORAMBUENA", "DIRECCION": "CHORRILLOS 1394,VICTORIA,CHILE.", "GIRO": "FERRETERIA", "ESTADO": "POTENCIAL CLIENTE", "COMUNA": "VICTORIA", "REGION": "REGION DE LA ARAUCANIA", "MES": "INICIAL", "PAIS": "CONTINENTE", "x": -72.329634746799996, "y": -38.236454609699997 }, "geometry": { "type": "Point", "coordinates": [ -72.329634746777202, -38.236454609691201 ] } },
{ "type": "Feature", "properties": { "ID": 11.0, "RUT": "NO INDICA RUT", "NOMBRE": "LUIS ALBERTO FUENTES PAREDEZ", "DIRECCION": "CHORRILLOS 1699 ,VICTORIA,CHILE.", "GIRO": "VENTA REPUESTOS VEHICULOS", "ESTADO": "POTENCIAL CLIENTE", "COMUNA": "VICTORIA", "REGION": "REGION DE LA ARAUCANIA", "MES": "INICIAL", "PAIS": "CONTINENTE", "x": -72.329168962699995, "y": -38.239412109500002 }, "geometry": { "type": "Point", "coordinates": [ -72.329168962707598, -38.239412109492498 ] } },
{ "type": "Feature", "properties": { "ID": 12.0, "RUT": "76687257-3", "NOMBRE": "SERVICIOS NEUBAT LIMITADA", "DIRECCION": "COVADONGA 595 ,VICTORIA,CHILE.", "GIRO": "VENTA DE NEUMATICOS, ACCESORIO AUTOMOTRIZ", "ESTADO": "POTENCIAL CLIENTE", "COMUNA": "VICTORIA", "REGION": "REGION DE LA ARAUCANIA", "MES": "INICIAL", "PAIS": "CONTINENTE", "x": -72.332128833100001, "y": -38.228347238399998 }, "geometry": { "type": "Point", "coordinates": [ -72.332128833132202, -38.2283472384403 ] } },
{ "type": "Feature", "properties": { "ID": 13.0, "RUT": "NO INDICA RUT", "NOMBRE": "GLADYS IRIS FULLER PEÑA", "DIRECCION": "GOROSTIAGA 283,VICTORIA,CHILE.", "GIRO": "LUBRICENTRO", "ESTADO": "POTENCIAL CLIENTE", "COMUNA": "VICTORIA", "REGION": "REGION DE LA ARAUCANIA", "MES": "INICIAL", "PAIS": "CONTINENTE", "x": -72.336405933099996, "y": -38.235589782700004 }, "geometry": { "type": "Point", "coordinates": [ -72.336405933072001, -38.235589782659503 ] } },
{ "type": "Feature", "properties": { "ID": 14.0, "RUT": "NO INDICA RUT", "NOMBRE": "CARLOS RICARDO GARCES PUENTES", "DIRECCION": "GOROSTIAGA 436,VICTORIA,CHILE.", "GIRO": "GDES. TIENDAS, COMP. MAD. Y MAT. CONSTRUCCION", "ESTADO": "POTENCIAL CLIENTE", "COMUNA": "VICTORIA", "REGION": "REGION DE LA ARAUCANIA", "MES": "INICIAL", "PAIS": "CONTINENTE", "x": -72.334199332899999, "y": -38.235694964499999 }, "geometry": { "type": "Point", "coordinates": [ -72.334199332883799, -38.235694964522501 ] } },
{ "type": "Feature", "properties": { "ID": 15.0, "RUT": "NO INDICA RUT", "NOMBRE": "OSCAR ALEJANDRO PARADA CARO", "DIRECCION": "GOROSTIAGA 468,VICTORIA,CHILE.", "GIRO": "TALLER MECANICO", "ESTADO": "POTENCIAL CLIENTE", "COMUNA": "VICTORIA", "REGION": "REGION DE LA ARAUCANIA", "MES": "INICIAL", "PAIS": "CONTINENTE", "x": -72.333854076199998, "y": -38.235764764300001 }, "geometry": { "type": "Point", "coordinates": [ -72.333854076208198, -38.235764764314801 ] } },
{ "type": "Feature", "properties": { "ID": 16.0, "RUT": "76314160-8", "NOMBRE": "COMERCIAL EQUIFOR LIMITADA", "DIRECCION": "GOROSTIAGA 545 ,VICTORIA,CHILE.", "GIRO": "VENTA MAQUINARIAS, MOTORES, REPUESTOS", "ESTADO": "POTENCIAL CLIENTE", "COMUNA": "VICTORIA", "REGION": "REGION DE LA ARAUCANIA", "MES": "INICIAL", "PAIS": "CONTINENTE", "x": -72.332861376099999, "y": -38.235533519299999 }, "geometry": { "type": "Point", "coordinates": [ -72.332861376067498, -38.235533519305498 ] } },
{ "type": "Feature", "properties": { "ID": 17.0, "RUT": "53229370-7", "NOMBRE": "SUC. EMILIANO W. BELTRAN ROMERO", "DIRECCION": "LAGOS 280,VICTORIA,CHILE.", "GIRO": "VULCANIZACION", "ESTADO": "POTENCIAL CLIENTE", "COMUNA": "VICTORIA", "REGION": "REGION DE LA ARAUCANIA", "MES": "INICIAL", "PAIS": "CONTINENTE", "x": -72.336844046600007, "y": -38.234760855399998 }, "geometry": { "type": "Point", "coordinates": [ -72.336844046619206, -38.234760855381701 ] } },
{ "type": "Feature", "properties": { "ID": 18.0, "RUT": "76826965-3", "NOMBRE": "HIDROFLEX VICTORIA SPA", "DIRECCION": "LORD COCHRANE 398 ,VICTORIA,CHILE.", "GIRO": "VENTA DE REPUESTOS Y ACCESORIOS", "ESTADO": "POTENCIAL CLIENTE", "COMUNA": "VICTORIA", "REGION": "REGION DE LA ARAUCANIA", "MES": "INICIAL", "PAIS": "CONTINENTE", "x": -72.334824047200001, "y": -38.239060064199997 }, "geometry": { "type": "Point", "coordinates": [ -72.334824047192598, -38.239060064214399 ] } },
{ "type": "Feature", "properties": { "ID": 19.0, "RUT": "76762740-8", "NOMBRE": "SOCIEDAD COMERCIALIZADORA DE REPUESTOS SPA", "DIRECCION": "MATURANA 125 ,VICTORIA,CHILE.", "GIRO": "VENTA DE REPUESTOS DE AUTOMOVILES Y MAQ. AGRICOLAS", "ESTADO": "POTENCIAL CLIENTE", "COMUNA": "VICTORIA", "REGION": "REGION DE LA ARAUCANIA", "MES": "INICIAL", "PAIS": "CONTINENTE", "x": -72.338606062500006, "y": -38.238755002700003 }, "geometry": { "type": "Point", "coordinates": [ -72.338606062457501, -38.238755002721298 ] } },
{ "type": "Feature", "properties": { "ID": 20.0, "RUT": "NO INDICA RUT", "NOMBRE": "JORGE HUGO CARDENAS ZUMARAN", "DIRECCION": "MATURANA 832,VICTORIA,CHILE.", "GIRO": "TALLER ELECTROMECANICO Y VENTA REP.", "ESTADO": "POTENCIAL CLIENTE", "COMUNA": "VICTORIA", "REGION": "REGION DE LA ARAUCANIA", "MES": "INICIAL", "PAIS": "CONTINENTE", "x": -72.329037604700005, "y": -38.23882001 }, "geometry": { "type": "Point", "coordinates": [ -72.329037604679797, -38.2388200099589 ] } },
{ "type": "Feature", "properties": { "ID": 21.0, "RUT": "NO INDICA RUT", "NOMBRE": "CABRERA RUIZ FRANCISCO JAVIER", "DIRECCION": "MIRAFLORES 1107 ,VICTORIA,CHILE.", "GIRO": "VENTA DE REPUESTOS AUTOMOTRICES", "ESTADO": "POTENCIAL CLIENTE", "COMUNA": "VICTORIA", "REGION": "REGION DE LA ARAUCANIA", "MES": "INICIAL", "PAIS": "CONTINENTE", "x": -72.328189749399996, "y": -38.234589635299997 }, "geometry": { "type": "Point", "coordinates": [ -72.3281897494021, -38.234589635339901 ] } },
{ "type": "Feature", "properties": { "ID": 22.0, "RUT": "NO INDICA RUT", "NOMBRE": "SILVA MALDONADO DIEGO MISAEL", "DIRECCION": "MIRAFLORES 1359 ,VICTORIA,CHILE.", "GIRO": "VENTA DE REPUESTOS AUTOMOTRICES", "ESTADO": "POTENCIAL CLIENTE", "COMUNA": "VICTORIA", "REGION": "REGION DE LA ARAUCANIA", "MES": "INICIAL", "PAIS": "CONTINENTE", "x": -72.327798719900002, "y": -38.237109301399997 }, "geometry": { "type": "Point", "coordinates": [ -72.327798719933199, -38.237109301429498 ] } },
{ "type": "Feature", "properties": { "ID": 23.0, "RUT": "76910817-3", "NOMBRE": "R & R LUBRICANTES Y ACCESORIOS SPA", "DIRECCION": "MIRAFLORES 1750 ,VICTORIA,CHILE.", "GIRO": "VENTA ACCESORIOS Y REPUESTOS DE VEHICULOS", "ESTADO": "POTENCIAL CLIENTE", "COMUNA": "VICTORIA", "REGION": "REGION DE LA ARAUCANIA", "MES": "INICIAL", "PAIS": "CONTINENTE", "x": -72.333758291199999, "y": -38.232679244499998 }, "geometry": { "type": "Point", "coordinates": [ -72.333758291165907, -38.232679244478398 ] } },
{ "type": "Feature", "properties": { "ID": 24.0, "RUT": "NO INDICA RUT", "NOMBRE": "LEVIO PALLALEO JEREMIAS ISAAC", "DIRECCION": "PISAGUA 1028 ,VICTORIA,CHILE.", "GIRO": "ART. FERRETERIA , RIEGO Y JARDIN", "ESTADO": "POTENCIAL CLIENTE", "COMUNA": "VICTORIA", "REGION": "REGION DE LA ARAUCANIA", "MES": "INICIAL", "PAIS": "CONTINENTE", "x": -72.333704647000005, "y": -38.2327382378 }, "geometry": { "type": "Point", "coordinates": [ -72.3337046470118, -38.232738237755399 ] } },
{ "type": "Feature", "properties": { "ID": 25.0, "RUT": "76337943-4", "NOMBRE": "FERRETERIA VENTURA HETZ CHAVARRIA EIRL", "DIRECCION": "RAMIREZ 825 ,VICTORIA,CHILE.", "GIRO": "FERRETERIA", "ESTADO": "POTENCIAL CLIENTE", "COMUNA": "VICTORIA", "REGION": "REGION DE LA ARAUCANIA", "MES": "INICIAL", "PAIS": "CONTINENTE", "x": -72.328749746400007, "y": -38.233312699899997 }, "geometry": { "type": "Point", "coordinates": [ -72.328749746381206, -38.2333126998886 ] } },
{ "type": "Feature", "properties": { "ID": 26.0, "RUT": "NO INDICA RUT", "NOMBRE": "DE CELIS ORMEÑO HERNAN ARMANDO", "DIRECCION": "RAMIREZ 935,VICTORIA,CHILE.", "GIRO": "TALLER MECANICO", "ESTADO": "POTENCIAL CLIENTE", "COMUNA": "VICTORIA", "REGION": "REGION DE LA ARAUCANIA", "MES": "INICIAL", "PAIS": "CONTINENTE", "x": -72.3275750042, "y": -38.232984437600003 }, "geometry": { "type": "Point", "coordinates": [ -72.327575004214594, -38.232984437624303 ] } },
{ "type": "Feature", "properties": { "ID": 27.0, "RUT": "78136280-8", "NOMBRE": "FORESTAL ALONSO HERMANOS LTDA.", "DIRECCION": "TEMUCO 1050,VICTORIA,CHILE.", "GIRO": "BARRACA DE MADERAS", "ESTADO": "POTENCIAL CLIENTE", "COMUNA": "VICTORIA", "REGION": "REGION DE LA ARAUCANIA", "MES": "INICIAL", "PAIS": "CONTINENTE", "x": -72.350407933100001, "y": -38.234803237999998 }, "geometry": { "type": "Point", "coordinates": [ -72.3504079330786, -38.234803238005497 ] } },
{ "type": "Feature", "properties": { "ID": 28.0, "RUT": "NO INDICA RUT", "NOMBRE": "PEREZ BENAVENTE MIREYA", "DIRECCION": "URRUTIA 496 ,VICTORIA,CHILE.", "GIRO": "VENTA REPUESTOS VEHICULOS", "ESTADO": "POTENCIAL CLIENTE", "COMUNA": "VICTORIA", "REGION": "REGION DE LA ARAUCANIA", "MES": "INICIAL", "PAIS": "CONTINENTE", "x": -72.334006889199998, "y": -38.232517165200001 }, "geometry": { "type": "Point", "coordinates": [ -72.334006889169103, -38.232517165196001 ] } },
{ "type": "Feature", "properties": { "ID": 29.0, "RUT": "NO INDICA RUT", "NOMBRE": "JELDRES VEJAR JUAN ANGEL", "DIRECCION": "URRUTIA 987,VICTORIA,CHILE.", "GIRO": "TALLER MECANICO", "ESTADO": "POTENCIAL CLIENTE", "COMUNA": "VICTORIA", "REGION": "REGION DE LA ARAUCANIA", "MES": "INICIAL", "PAIS": "CONTINENTE", "x": -72.326641088800002, "y": -38.232228881899999 }, "geometry": { "type": "Point", "coordinates": [ -72.326641088791703, -38.232228881942198 ] } },
{ "type": "Feature", "properties": { "ID": 30.0, "RUT": "76132773-9", "NOMBRE": "CONSTRUCTORA MERMOUD LTDA.", "DIRECCION": "VERGARA 645 ,VICTORIA,CHILE.", "GIRO": "FERRETERIA", "ESTADO": "POTENCIAL CLIENTE", "COMUNA": "VICTORIA", "REGION": "REGION DE LA ARAUCANIA", "MES": "INICIAL", "PAIS": "CONTINENTE", "x": -72.331541675599993, "y": -38.231163137300001 }, "geometry": { "type": "Point", "coordinates": [ -72.331541675606104, -38.231163137329801 ] } },
{ "type": "Feature", "properties": { "ID": 31.0, "RUT": "79947410-7", "NOMBRE": "SOCIEDAD CONTRERAS CARTER Y CIA LTDA", "DIRECCION": "VILLA ALEGRE 495 ,VICTORIA,CHILE.", "GIRO": "FERRETERIA", "ESTADO": "POTENCIAL CLIENTE", "COMUNA": "VICTORIA", "REGION": "REGION DE LA ARAUCANIA", "MES": "INICIAL", "PAIS": "CONTINENTE", "x": -72.324075104200006, "y": -38.241521029700003 }, "geometry": { "type": "Point", "coordinates": [ -72.324075104198698, -38.241521029691903 ] } },
{ "type": "Feature", "properties": { "ID": 32.0, "RUT": "NO INDICA RUT", "NOMBRE": "PADILLA SEGUEL ROLANDO HIPOLITO", "DIRECCION": "VILLA ALEGRE 585 ,VICTORIA,CHILE.", "GIRO": "VENTA REPUESTOS Y ACCESORIOS PARA VEHICULOS", "ESTADO": "POTENCIAL CLIENTE", "COMUNA": "VICTORIA", "REGION": "REGION DE LA ARAUCANIA", "MES": "INICIAL", "PAIS": "CONTINENTE", "x": -72.323202662499995, "y": -38.242005641900001 }, "geometry": { "type": "Point", "coordinates": [ -72.323202662535607, -38.242005641935002 ] } },
{ "type": "Feature", "properties": { "ID": 33.0, "RUT": "17153322-8", "NOMBRE": "MANUEL ALEJANDRO ORELLANA SANHUEZA", "DIRECCION": "ARGOMEDO 100 ,COLLIPULLI.", "GIRO": "TALLER MECANICO", "ESTADO": "POTENCIAL CLIENTE", "COMUNA": "COLLIPULLI", "REGION": "REGION DE LA ARAUCANIA", "MES": "INICIAL", "PAIS": "CONTINENTE", "x": -72.434434162200006, "y": -37.9609660514 }, "geometry": { "type": "Point", "coordinates": [ -72.434434162221393, -37.960966051416101 ] } },
{ "type": "Feature", "properties": { "ID": 34.0, "RUT": "17158299-7", "NOMBRE": "PEDRO DANIEL SANDOVAL VALDEBENITO", "DIRECCION": "ARGOMEDO 455 ,COLLIPULLI.", "GIRO": "VULCANIZACION", "ESTADO": "POTENCIAL CLIENTE", "COMUNA": "COLLIPULLI", "REGION": "REGION DE LA ARAUCANIA", "MES": "INICIAL", "PAIS": "CONTINENTE", "x": -72.430160711100001, "y": -37.9561419339 }, "geometry": { "type": "Point", "coordinates": [ -72.430160711116102, -37.956141933896902 ] } },
{ "type": "Feature", "properties": { "ID": 35.0, "RUT": "15228115-3", "NOMBRE": "WILLIAMS ALEJANDRO CASTILLO ROMERO", "DIRECCION": "ARGOMEDO ESQUINA CARRERA S/N ,COLLIPULLI.", "GIRO": "TALLER MECANICO", "ESTADO": "POTENCIAL CLIENTE", "COMUNA": "COLLIPULLI", "REGION": "REGION DE LA ARAUCANIA", "MES": "INICIAL", "PAIS": "CONTINENTE", "x": -72.428931442299998, "y": -37.955027381299999 }, "geometry": { "type": "Point", "coordinates": [ -72.428931442283599, -37.955027381332798 ] } },
{ "type": "Feature", "properties": { "ID": 36.0, "RUT": "21006731-0", "NOMBRE": "SEBASTIAN ALEXIS VELASQUEZ CARDENAS", "DIRECCION": "AV. MARTA GONZALEZ 1307 ,COLLIPULLI.", "GIRO": "FERRETERIA", "ESTADO": "POTENCIAL CLIENTE", "COMUNA": "COLLIPULLI", "REGION": "REGION DE LA ARAUCANIA", "MES": "INICIAL", "PAIS": "CONTINENTE", "x": -72.4251123178, "y": -37.951661395199999 }, "geometry": { "type": "Point", "coordinates": [ -72.425112317792099, -37.951661395190797 ] } },
{ "type": "Feature", "properties": { "ID": 37.0, "RUT": "90152000-3", "NOMBRE": "ALIMENTOS EL GLOBO S.A.", "DIRECCION": "AV. STAGNO 1020 ,COLLIPULLI.", "GIRO": "MOLIENDA DE TRIGO PRODUCCION DE HARINA SEMOLA GRANULOS Y ELABORACION DE OTROS PRODUCTOS DE MOLINERIA N.C.P.", "ESTADO": "POTENCIAL CLIENTE", "COMUNA": "COLLIPULLI", "REGION": "REGION DE LA ARAUCANIA", "MES": "INICIAL", "PAIS": "CONTINENTE", "x": -72.436679505200004, "y": -37.950696895999997 }, "geometry": { "type": "Point", "coordinates": [ -72.436679505151702, -37.950696896023501 ] } },
{ "type": "Feature", "properties": { "ID": 38.0, "RUT": "50099960-8", "NOMBRE": "MARCELO DOUSSOLIN E HIJOS LTDA.", "DIRECCION": "AV.SAAVEDRA SUR 578 ,COLLIPULLI.", "GIRO": "BARRACA", "ESTADO": "POTENCIAL CLIENTE", "COMUNA": "COLLIPULLI", "REGION": "REGION DE LA ARAUCANIA", "MES": "INICIAL", "PAIS": "CONTINENTE", "x": -72.439384562800001, "y": -37.953696894499998 }, "geometry": { "type": "Point", "coordinates": [ -72.439384562805301, -37.953696894544699 ] } },
{ "type": "Feature", "properties": { "ID": 39.0, "RUT": "12986051-0", "NOMBRE": "CRISTIAN MARCELO YEVENES GALLEGOS", "DIRECCION": "BULNES 265,COLLIPULLI.", "GIRO": "FERRETERIA", "ESTADO": "POTENCIAL CLIENTE", "COMUNA": "COLLIPULLI", "REGION": "REGION DE LA ARAUCANIA", "MES": "INICIAL", "PAIS": "CONTINENTE", "x": -72.434706133800006, "y": -37.957431112800002 }, "geometry": { "type": "Point", "coordinates": [ -72.434706133766298, -37.957431112817297 ] } },
{ "type": "Feature", "properties": { "ID": 40.0, "RUT": "76959505-8", "NOMBRE": "REPTOS.NOLBERTO N.BARRIENTOS SOTO EIRL", "DIRECCION": "BULNES 351 ,COLLIPULLI.", "GIRO": "VENTA DE REPUESTOS DE VEHICULOS", "ESTADO": "POTENCIAL CLIENTE", "COMUNA": "COLLIPULLI", "REGION": "REGION DE LA ARAUCANIA", "MES": "INICIAL", "PAIS": "CONTINENTE", "x": -72.434334333799995, "y": -37.957168794099999 }, "geometry": { "type": "Point", "coordinates": [ -72.434334333791298, -37.957168794125103 ] } },
{ "type": "Feature", "properties": { "ID": 41.0, "RUT": "6475004-6", "NOMBRE": "MARIO ALIRO VASQUEZ JAQUE", "DIRECCION": "BULNES 437 ,COLLIPULLI.", "GIRO": "BARRACA DE MADERAS.", "ESTADO": "POTENCIAL CLIENTE", "COMUNA": "COLLIPULLI", "REGION": "REGION DE LA ARAUCANIA", "MES": "INICIAL", "PAIS": "CONTINENTE", "x": -72.433359491000004, "y": -37.956013216300001 }, "geometry": { "type": "Point", "coordinates": [ -72.433359490974098, -37.956013216253901 ] } },
{ "type": "Feature", "properties": { "ID": 42.0, "RUT": "76497662-2", "NOMBRE": "JORGE NEIRA Y CIA. LTDA.", "DIRECCION": "BULNES 567 ,COLLIPULLI.", "GIRO": "LUBRICENTRO", "ESTADO": "POTENCIAL CLIENTE", "COMUNA": "COLLIPULLI", "REGION": "REGION DE LA ARAUCANIA", "MES": "INICIAL", "PAIS": "CONTINENTE", "x": -72.432320018499993, "y": -37.954903735499997 }, "geometry": { "type": "Point", "coordinates": [ -72.432320018534199, -37.954903735483498 ] } },
{ "type": "Feature", "properties": { "ID": 43.0, "RUT": "9209673-4", "NOMBRE": "EDGARDO OMAR MUÑOZ MELGAREJO", "DIRECCION": "BULNES 737 ,COLLIPULLI.", "GIRO": "TALLER MECANICO", "ESTADO": "POTENCIAL CLIENTE", "COMUNA": "COLLIPULLI", "REGION": "REGION DE LA ARAUCANIA", "MES": "INICIAL", "PAIS": "CONTINENTE", "x": -72.430982646700002, "y": -37.953384395299999 }, "geometry": { "type": "Point", "coordinates": [ -72.430982646663907, -37.953384395335704 ] } },
{ "type": "Feature", "properties": { "ID": 44.0, "RUT": "16602790-k", "NOMBRE": "PABLO ANDRES RIQUELME MORALES", "DIRECCION": "CALLE LOS LILIUM 1000 ,COLLIPULLI.", "GIRO": "FERRETERIA", "ESTADO": "POTENCIAL CLIENTE", "COMUNA": "COLLIPULLI", "REGION": "REGION DE LA ARAUCANIA", "MES": "INICIAL", "PAIS": "CONTINENTE", "x": -72.420216617700007, "y": -37.956098175000001 }, "geometry": { "type": "Point", "coordinates": [ -72.420216617666497, -37.956098174992903 ] } },
{ "type": "Feature", "properties": { "ID": 45.0, "RUT": "12736559-8", "NOMBRE": "SERGIO EDUARDO RIVAS SEPULVEDA", "DIRECCION": "CAUPOLICAN 1120 ,COLLIPULLI.", "GIRO": "VTA. DE REPUESTOS Y ACCESORIOS", "ESTADO": "POTENCIAL CLIENTE", "COMUNA": "COLLIPULLI", "REGION": "REGION DE LA ARAUCANIA", "MES": "INICIAL", "PAIS": "CONTINENTE", "x": -72.431410391699998, "y": -37.9525035952 }, "geometry": { "type": "Point", "coordinates": [ -72.431410391719595, -37.952503595196397 ] } },
{ "type": "Feature", "properties": { "ID": 46.0, "RUT": "11266038-0", "NOMBRE": "LUIS ALBERTO MORALES DIAZ", "DIRECCION": "CAUPOLICAN 1510 ,COLLIPULLI.", "GIRO": "VENTA DE REPUESTOS Y ACCESORIOS DE VEHICULOS", "ESTADO": "POTENCIAL CLIENTE", "COMUNA": "COLLIPULLI", "REGION": "REGION DE LA ARAUCANIA", "MES": "INICIAL", "PAIS": "CONTINENTE", "x": -72.427383133399999, "y": -37.9546352578 }, "geometry": { "type": "Point", "coordinates": [ -72.427383133388005, -37.954635257843201 ] } },
{ "type": "Feature", "properties": { "ID": 47.0, "RUT": "9661790-9", "NOMBRE": "LUIS ALBERTO BRICEÑO BRICEÑO", "DIRECCION": "CERRO 225 ,COLLIPULLI.", "GIRO": "TALLER DE ELCTRICIDAD DE AUTOMOVILES", "ESTADO": "POTENCIAL CLIENTE", "COMUNA": "COLLIPULLI", "REGION": "REGION DE LA ARAUCANIA", "MES": "INICIAL", "PAIS": "CONTINENTE", "x": -72.431417791000001, "y": -37.959318256899998 }, "geometry": { "type": "Point", "coordinates": [ -72.431417790995894, -37.9593182569213 ] } },
{ "type": "Feature", "properties": { "ID": 48.0, "RUT": "77510335-3", "NOMBRE": "COMERC. JAVIER I. ARANEDA MONTENEGRO EIRL", "DIRECCION": "CRUZ 43 ,COLLIPULLI.", "GIRO": "FERRETERIA", "ESTADO": "POTENCIAL CLIENTE", "COMUNA": "COLLIPULLI", "REGION": "REGION DE LA ARAUCANIA", "MES": "INICIAL", "PAIS": "CONTINENTE", "x": -72.4370960623, "y": -37.958346952799999 }, "geometry": { "type": "Point", "coordinates": [ -72.437096062265496, -37.958346952770697 ] } },
{ "type": "Feature", "properties": { "ID": 49.0, "RUT": "14032642-9", "NOMBRE": "ROBERTO ESTEBAN DIAZ SOTO", "DIRECCION": "CRUZ 799 ,COLLIPULLI.", "GIRO": "VENTA DE REPUESTOS ACCESORIOS DE VEHICULOS Y RECTIFICACION DE DISCOS Y TAMBORES", "ESTADO": "POTENCIAL CLIENTE", "COMUNA": "COLLIPULLI", "REGION": "REGION DE LA ARAUCANIA", "MES": "INICIAL", "PAIS": "CONTINENTE", "x": -72.430949890700006, "y": -37.9515601162 }, "geometry": { "type": "Point", "coordinates": [ -72.430949890746604, -37.9515601161768 ] } },
{ "type": "Feature", "properties": { "ID": 50.0, "RUT": "76547748-4", "NOMBRE": "LOS COPIHUES DE MALLECO SPA.", "DIRECCION": "CRUZ 68 ,COLLIPULLI.", "GIRO": "COMPRA Y VENTA DE ACCESORIOS AUTOMOTRICES", "ESTADO": "POTENCIAL CLIENTE", "COMUNA": "COLLIPULLI", "REGION": "REGION DE LA ARAUCANIA", "MES": "INICIAL", "PAIS": "CONTINENTE", "x": -72.436611217999996, "y": -37.958398116300003 }, "geometry": { "type": "Point", "coordinates": [ -72.436611218049805, -37.958398116266501 ] } },
{ "type": "Feature", "properties": { "ID": 51.0, "RUT": "6475003-8", "NOMBRE": "BENICIO EDMUNDO SANHUEZA MANRIQUEZ", "DIRECCION": "LYNCH 249 ,COLLIPULLI.", "GIRO": "VENTA DE LUBRICANTES", "ESTADO": "POTENCIAL CLIENTE", "COMUNA": "COLLIPULLI", "REGION": "REGION DE LA ARAUCANIA", "MES": "INICIAL", "PAIS": "CONTINENTE", "x": -72.439326591300002, "y": -37.954272223300002 }, "geometry": { "type": "Point", "coordinates": [ -72.439326591251302, -37.954272223295597 ] } },
{ "type": "Feature", "properties": { "ID": 52.0, "RUT": "7499110-6", "NOMBRE": "JUAN FLORENTINO CONTRERAS URIA", "DIRECCION": "MAC IVER 0171, VILLA MININCO ,COLLIPULLI.", "GIRO": "VULCANIZACION", "ESTADO": "POTENCIAL CLIENTE", "COMUNA": "COLLIPULLI", "REGION": "REGION DE LA ARAUCANIA", "MES": "INICIAL", "PAIS": "CONTINENTE", "x": -72.472903136100001, "y": -37.794445727899998 }, "geometry": { "type": "Point", "coordinates": [ -72.472903136080106, -37.794445727878802 ] } },
{ "type": "Feature", "properties": { "ID": 53.0, "RUT": "12363391-1", "NOMBRE": "LEONARDO ARTURO AEDO ROMERO", "DIRECCION": "MANUEL RODRIGUEZ 275, VILLA ESPERANZA ,COLLIPULLI.", "GIRO": "VULCANIZACION Y FERRETERIA", "ESTADO": "POTENCIAL CLIENTE", "COMUNA": "COLLIPULLI", "REGION": "REGION DE LA ARAUCANIA", "MES": "INICIAL", "PAIS": "CONTINENTE", "x": -72.394077454500007, "y": -37.843208547800003 }, "geometry": { "type": "Point", "coordinates": [ -72.394077454481902, -37.843208547793999 ] } },
{ "type": "Feature", "properties": { "ID": 54.0, "RUT": "9370456-8", "NOMBRE": "SYLVIO RENAN GUTIERREZ FUENTES", "DIRECCION": "MARTA BRUNET 1202 ,COLLIPULLI.", "GIRO": "SALA DE VENTA DE ARTICULOS DE FERRETERIA MATERIALES DE CONSTRUCCION Y SERVICIOS DE TRANSPORTES", "ESTADO": "POTENCIAL CLIENTE", "COMUNA": "COLLIPULLI", "REGION": "REGION DE LA ARAUCANIA", "MES": "INICIAL", "PAIS": "CONTINENTE", "x": -72.425673418000002, "y": -37.950082515799998 }, "geometry": { "type": "Point", "coordinates": [ -72.425673417972803, -37.950082515758503 ] } },
{ "type": "Feature", "properties": { "ID": 55.0, "RUT": "4674895-6", "NOMBRE": "EVA FIGUEROA FERNANDEZ", "DIRECCION": "MICHIGAN 35 ,COLLIPULLI.", "GIRO": "TALLER MECANICO", "ESTADO": "POTENCIAL CLIENTE", "COMUNA": "COLLIPULLI", "REGION": "REGION DE LA ARAUCANIA", "MES": "INICIAL", "PAIS": "CONTINENTE", "x": -72.422079533900003, "y": -37.958762099399998 }, "geometry": { "type": "Point", "coordinates": [ -72.422079533852695, -37.9587620994361 ] } },
{ "type": "Feature", "properties": { "ID": 56.0, "RUT": "76937148-6", "NOMBRE": "SOCIEDAD MOLINERA DEL MALLECO SPA", "DIRECCION": "OHIGGINS 427 ,COLLIPULLI.", "GIRO": "MOLINO", "ESTADO": "POTENCIAL CLIENTE", "COMUNA": "COLLIPULLI", "REGION": "REGION DE LA ARAUCANIA", "MES": "INICIAL", "PAIS": "CONTINENTE", "x": -72.431535776399997, "y": -37.955694815599998 }, "geometry": { "type": "Point", "coordinates": [ -72.431535776383896, -37.955694815612802 ] } },
{ "type": "Feature", "properties": { "ID": 57.0, "RUT": "76622246-3", "NOMBRE": "COMERCIAL M&F LIMITADA", "DIRECCION": "OCARROL 1401 ,COLLIPULLI.", "GIRO": "VENTA DE REPUESTOS Y ACCESORIOS DE AUTOMOVIL Y BICICLETAS", "ESTADO": "POTENCIAL CLIENTE", "COMUNA": "COLLIPULLI", "REGION": "REGION DE LA ARAUCANIA", "MES": "INICIAL", "PAIS": "CONTINENTE", "x": -72.432274733400007, "y": -37.958899816100001 }, "geometry": { "type": "Point", "coordinates": [ -72.432274733414502, -37.958899816051698 ] } },
{ "type": "Feature", "properties": { "ID": 58.0, "RUT": "12180683-5", "NOMBRE": "GREGORIO ANDRES DELARZE ANDRADES", "DIRECCION": "OCARROL 858 ,COLLIPULLI.", "GIRO": "COMPRAVENTA DE COMBUSTIBLES LUBRICANTES Y AFINES", "ESTADO": "POTENCIAL CLIENTE", "COMUNA": "COLLIPULLI", "REGION": "REGION DE LA ARAUCANIA", "MES": "INICIAL", "PAIS": "CONTINENTE", "x": -72.438018933199999, "y": -37.955893737399997 }, "geometry": { "type": "Point", "coordinates": [ -72.4380189332079, -37.955893737394497 ] } },
{ "type": "Feature", "properties": { "ID": 59.0, "RUT": "16394793-5", "NOMBRE": "DAGULE IGNACIO PEÑA BRAVO ALEXIS", "DIRECCION": "OCARROL 1170 ,COLLIPULLI.", "GIRO": "VENTA DE REPUESTOS Y ACCESORIOS PARA VEHICULOS", "ESTADO": "POTENCIAL CLIENTE", "COMUNA": "COLLIPULLI", "REGION": "REGION DE LA ARAUCANIA", "MES": "INICIAL", "PAIS": "CONTINENTE", "x": -72.434087875700001, "y": -37.958201175100001 }, "geometry": { "type": "Point", "coordinates": [ -72.434087875689499, -37.958201175128202 ] } },
{ "type": "Feature", "properties": { "ID": 60.0, "RUT": "77153005-2", "NOMBRE": "REPUESTOS LUCIANO SPA", "DIRECCION": "OCARROL 701 ,COLLIPULLI.", "GIRO": "VENTA DE REPUESTOS LUBRICANTES Y ACCESORIOS DE VEHICULOS", "ESTADO": "POTENCIAL CLIENTE", "COMUNA": "COLLIPULLI", "REGION": "REGION DE LA ARAUCANIA", "MES": "INICIAL", "PAIS": "CONTINENTE", "x": -72.438483733699996, "y": -37.955257215899998 }, "geometry": { "type": "Point", "coordinates": [ -72.438483733713596, -37.955257215918799 ] } },
{ "type": "Feature", "properties": { "ID": 61.0, "RUT": "77087689-3", "NOMBRE": "FERRETERIA V & R SPA", "DIRECCION": "OHIGGINS 763, VILLA MININCO ,COLLIPULLI.", "GIRO": "FERRETERIA ACCESORIOS DE VEHICULOS ART. DE CAZA Y PESCA ACCESORIOS DE MOTOCICLETAS", "ESTADO": "POTENCIAL CLIENTE", "COMUNA": "COLLIPULLI", "REGION": "REGION DE LA ARAUCANIA", "MES": "INICIAL", "PAIS": "CONTINENTE", "x": -72.473615975900003, "y": -37.789586596900001 }, "geometry": { "type": "Point", "coordinates": [ -72.473615975887299, -37.789586596945099 ] } },
{ "type": "Feature", "properties": { "ID": 62.0, "RUT": "15227949-3", "NOMBRE": "ERASMO ARNALDO SANCHEZ RODRIGUEZ", "DIRECCION": "OHIGGINS 1188 ,COLLIPULLI.", "GIRO": "VENTA AL POR MENOR DE ARTICULOS DE FERRETERIA Y MATERIALES DE CONSTRUCCION", "ESTADO": "POTENCIAL CLIENTE", "COMUNA": "COLLIPULLI", "REGION": "REGION DE LA ARAUCANIA", "MES": "INICIAL", "PAIS": "CONTINENTE", "x": -72.428472817699998, "y": -37.953252996099998 }, "geometry": { "type": "Point", "coordinates": [ -72.428472817746496, -37.9532529960589 ] } },
{ "type": "Feature", "properties": { "ID": 63.0, "RUT": "8373033-1", "NOMBRE": "SEGUNDO ANTONIO RIVAS MORALES", "DIRECCION": "OHIGGINS 19 ,COLLIPULLI.", "GIRO": "VENTA DE LUBRICANTES Y REPUESTOS AUTOMOTRICES", "ESTADO": "POTENCIAL CLIENTE", "COMUNA": "COLLIPULLI", "REGION": "REGION DE LA ARAUCANIA", "MES": "INICIAL", "PAIS": "CONTINENTE", "x": -72.435841706800005, "y": -37.960557780199998 }, "geometry": { "type": "Point", "coordinates": [ -72.435841706822401, -37.960557780175002 ] } },
{ "type": "Feature", "properties": { "ID": 64.0, "RUT": "6237926-K", "NOMBRE": "DA COSTA MORALES JULIO", "DIRECCION": "PANAMERICANA SUR 5 ,COLLIPULLI.", "GIRO": "TALLER DE ELECTRICIDAD DE AUTOMOVILES", "ESTADO": "POTENCIAL CLIENTE", "COMUNA": "COLLIPULLI", "REGION": "REGION DE LA ARAUCANIA", "MES": "INICIAL", "PAIS": "CONTINENTE", "x": -72.429191757200002, "y": -37.960829309600001 }, "geometry": { "type": "Point", "coordinates": [ -72.429191757203697, -37.960829309579601 ] } },
{ "type": "Feature", "properties": { "ID": 65.0, "RUT": "6907691-2", "NOMBRE": "JUAN JOSE NAVARRETE BELTRAN", "DIRECCION": "SAAVEDRA 1717 ,COLLIPULLI.", "GIRO": "VULCANIZACION", "ESTADO": "POTENCIAL CLIENTE", "COMUNA": "COLLIPULLI", "REGION": "REGION DE LA ARAUCANIA", "MES": "INICIAL", "PAIS": "CONTINENTE", "x": -72.429868633300003, "y": -37.959025519599997 }, "geometry": { "type": "Point", "coordinates": [ -72.429868633303897, -37.959025519558701 ] } },
{ "type": "Feature", "properties": { "ID": 66.0, "RUT": "3441047-K", "NOMBRE": "IVAN ARIEL GACITUA GEISSBUHLER", "DIRECCION": "SAAVEDRA NORTE 751 ,COLLIPULLI.", "GIRO": "MOLINO", "ESTADO": "POTENCIAL CLIENTE", "COMUNA": "COLLIPULLI", "REGION": "REGION DE LA ARAUCANIA", "MES": "INICIAL", "PAIS": "CONTINENTE", "x": -72.437776233600005, "y": -37.953781835699999 }, "geometry": { "type": "Point", "coordinates": [ -72.437776233619303, -37.953781835687003 ] } },
{ "type": "Feature", "properties": { "ID": 67.0, "RUT": "8833558-9", "NOMBRE": "JOSE GABRIEL HENRIQUEZ VEGA", "DIRECCION": "SARGENTO ALDEA 1037 ,COLLIPULLI.", "GIRO": "TALLER MECANICO", "ESTADO": "POTENCIAL CLIENTE", "COMUNA": "COLLIPULLI", "REGION": "REGION DE LA ARAUCANIA", "MES": "INICIAL", "PAIS": "CONTINENTE", "x": -72.434521249200003, "y": -37.9543613966 }, "geometry": { "type": "Point", "coordinates": [ -72.4345212492412, -37.954361396604298 ] } },
{ "type": "Feature", "properties": { "ID": 68.0, "RUT": "77191949-9", "NOMBRE": "MATERIALES CONST FERRETERIA CAROLINA LABRIN CAMAN E.I.R.L", "DIRECCION": "2 ORIENTE 135,TEMUCO.", "GIRO": "FERRETERIA Y VENTA DE MATERIALES DE CONSTRUCCION", "ESTADO": "POTENCIAL CLIENTE", "COMUNA": "TEMUCO", "REGION": "REGION DE LA ARAUCANIA", "MES": "INICIAL", "PAIS": "CONTINENTE", "x": -72.751616926200001, "y": -38.765360085499999 }, "geometry": { "type": "Point", "coordinates": [ -72.751616926219697, -38.765360085526702 ] } },
{ "type": "Feature", "properties": { "ID": 69.0, "RUT": "07280049-4", "NOMBRE": "MERIÑO PEDRERO JOSE FIDEL", "DIRECCION": "5 DE ABRIL 2195,TEMUCO.", "GIRO": "REP. VEHIC. MOTORIZ.", "ESTADO": "POTENCIAL CLIENTE", "COMUNA": "TEMUCO", "REGION": "REGION DE LA ARAUCANIA", "MES": "INICIAL", "PAIS": "CONTINENTE", "x": -72.569678029100004, "y": -38.720534924900001 }, "geometry": { "type": "Point", "coordinates": [ -72.569678029105006, -38.720534924932302 ] } },
{ "type": "Feature", "properties": { "ID": 70.0, "RUT": "06134044-0", "NOMBRE": "BRAVO CASTILLO LAUTARO ORLANDO", "DIRECCION": "5 DE ABRIL 2197,TEMUCO.", "GIRO": "REP. AUTOMOVILES Y M", "ESTADO": "POTENCIAL CLIENTE", "COMUNA": "TEMUCO", "REGION": "REGION DE LA ARAUCANIA", "MES": "INICIAL", "PAIS": "CONTINENTE", "x": -72.569678029100004, "y": -38.720534924900001 }, "geometry": { "type": "Point", "coordinates": [ -72.569678029105006, -38.720534924932302 ] } },
{ "type": "Feature", "properties": { "ID": 71.0, "RUT": "07022437-2", "NOMBRE": "MACKAY GONZALEZ ALFREDO MANUEL", "DIRECCION": "ANDRES BELLO 1185,TEMUCO.", "GIRO": "REP. VEHICULOS MOTOR", "ESTADO": "POTENCIAL CLIENTE", "COMUNA": "TEMUCO", "REGION": "REGION DE LA ARAUCANIA", "MES": "INICIAL", "PAIS": "CONTINENTE", "x": -72.586039628799995, "y": -38.742127301300002 }, "geometry": { "type": "Point", "coordinates": [ -72.586039628835195, -38.742127301290097 ] } },
{ "type": "Feature", "properties": { "ID": 72.0, "RUT": "05414260-9", "NOMBRE": "ARRIAGADA BERNALES PEDRO", "DIRECCION": "ANDRES BELLO 1216,TEMUCO.", "GIRO": "TALLER REPARACION DE VEHICULOS", "ESTADO": "POTENCIAL CLIENTE", "COMUNA": "TEMUCO", "REGION": "REGION DE LA ARAUCANIA", "MES": "INICIAL", "PAIS": "CONTINENTE", "x": -72.585031567300007, "y": -38.742483114700001 }, "geometry": { "type": "Point", "coordinates": [ -72.585031567263798, -38.742483114671501 ] } },
{ "type": "Feature", "properties": { "ID": 73.0, "RUT": "08720621-1", "NOMBRE": "ORIAS ABARZUA SANTOS HERMINIO", "DIRECCION": "ANDRES BELLO 138,TEMUCO.", "GIRO": "MANTENIMIENTO Y REPARACION VEHICULOS AUTOMOTORES", "ESTADO": "POTENCIAL CLIENTE", "COMUNA": "TEMUCO", "REGION": "REGION DE LA ARAUCANIA", "MES": "INICIAL", "PAIS": "CONTINENTE", "x": -72.599957840399995, "y": -38.740297964699998 }, "geometry": { "type": "Point", "coordinates": [ -72.599957840400506, -38.740297964746901 ] } },
{ "type": "Feature", "properties": { "ID": 74.0, "RUT": "08436431-2", "NOMBRE": "LEFIMIL ILABE JORGE BERNABE", "DIRECCION": "ANTIFIL 0249,TEMUCO.", "GIRO": "VULCANIZACION", "ESTADO": "POTENCIAL CLIENTE", "COMUNA": "TEMUCO", "REGION": "REGION DE LA ARAUCANIA", "MES": "INICIAL", "PAIS": "CONTINENTE", "x": -72.572174177500003, "y": -38.737399129099998 }, "geometry": { "type": "Point", "coordinates": [ -72.572174177523607, -38.737399129134502 ] } },
{ "type": "Feature", "properties": { "ID": 75.0, "RUT": "77284560-K", "NOMBRE": "SOC. COMERCIAL ANTIFIL LTDA.", "DIRECCION": "ANTIFIL 040,TEMUCO.", "GIRO": "FERRETERIA", "ESTADO": "POTENCIAL CLIENTE", "COMUNA": "TEMUCO", "REGION": "REGION DE LA ARAUCANIA", "MES": "INICIAL", "PAIS": "CONTINENTE", "x": -72.576003571599998, "y": -38.738644148699997 }, "geometry": { "type": "Point", "coordinates": [ -72.576003571604502, -38.738644148659198 ] } },
{ "type": "Feature", "properties": { "ID": 76.0, "RUT": "10540143-4", "NOMBRE": "BARBOSA CONTRERAS ERIKA DEL CARMEN", "DIRECCION": "ANTIFIL 174,TEMUCO.", "GIRO": "REP. AUTOMOVILES", "ESTADO": "POTENCIAL CLIENTE", "COMUNA": "TEMUCO", "REGION": "REGION DE LA ARAUCANIA", "MES": "INICIAL", "PAIS": "CONTINENTE", "x": -72.573690748900006, "y": -38.737916110900002 }, "geometry": { "type": "Point", "coordinates": [ -72.573690748915098, -38.7379161108585 ] } },
{ "type": "Feature", "properties": { "ID": 77.0, "RUT": "05347725-9", "NOMBRE": "TAPIA DONOSO HECTOR BELARMINO", "DIRECCION": "ANTONIO VARAS 1198,TEMUCO.", "GIRO": "VENTA DE REPUESTOS Y ACCESORIOS AUTOMOTRICES", "ESTADO": "POTENCIAL CLIENTE", "COMUNA": "TEMUCO", "REGION": "REGION DE LA ARAUCANIA", "MES": "INICIAL", "PAIS": "CONTINENTE", "x": -72.585934186800003, "y": -38.741271742599999 }, "geometry": { "type": "Point", "coordinates": [ -72.585934186813901, -38.741271742552897 ] } },
{ "type": "Feature", "properties": { "ID": 78.0, "RUT": "77337500-3", "NOMBRE": "DISTRIBUIDORA DE NEUMATICOS DEL SUR LTDA", "DIRECCION": "ARTURO PRAT 854,TEMUCO.", "GIRO": "MAQS.MOTORES Y REPUE", "ESTADO": "POTENCIAL CLIENTE", "COMUNA": "TEMUCO", "REGION": "REGION DE LA ARAUCANIA", "MES": "INICIAL", "PAIS": "CONTINENTE", "x": -72.591494360200002, "y": -38.7419327713 }, "geometry": { "type": "Point", "coordinates": [ -72.591494360172305, -38.741932771280602 ] } },
{ "type": "Feature", "properties": { "ID": 79.0, "RUT": "77213570-K", "NOMBRE": "SOCIEDAD S.J. LTDA.", "DIRECCION": "AVDA. ANDES 167,TEMUCO.", "GIRO": "VULCANIZACION", "ESTADO": "POTENCIAL CLIENTE", "COMUNA": "TEMUCO", "REGION": "REGION DE LA ARAUCANIA", "MES": "INICIAL", "PAIS": "CONTINENTE", "x": -72.620143780600003, "y": -38.727670611400001 }, "geometry": { "type": "Point", "coordinates": [ -72.620143780631096, -38.727670611436999 ] } },
{ "type": "Feature", "properties": { "ID": 80.0, "RUT": "96794750-4", "NOMBRE": "AVANT SERVICIOS INTEGRALES S.A.", "DIRECCION": "AVDA. BALMACEDA 1159,TEMUCO.", "GIRO": "VENTA REPUESTOS AUTOMOTRICES", "ESTADO": "POTENCIAL CLIENTE", "COMUNA": "TEMUCO", "REGION": "REGION DE LA ARAUCANIA", "MES": "INICIAL", "PAIS": "CONTINENTE", "x": -72.5843123569, "y": -38.733525268000001 }, "geometry": { "type": "Point", "coordinates": [ -72.584312356877504, -38.733525267979701 ] } },
{ "type": "Feature", "properties": { "ID": 81.0, "RUT": "06581199-5", "NOMBRE": "GAETE CHESTA JUAN LUIS", "DIRECCION": "AVDA. BALMACEDA 1191,TEMUCO.", "GIRO": "FERRETERIA", "ESTADO": "POTENCIAL CLIENTE", "COMUNA": "TEMUCO", "REGION": "REGION DE LA ARAUCANIA", "MES": "INICIAL", "PAIS": "CONTINENTE", "x": -72.583824326699997, "y": -38.733688565500003 }, "geometry": { "type": "Point", "coordinates": [ -72.583824326708694, -38.733688565513802 ] } },
{ "type": "Feature", "properties": { "ID": 82.0, "RUT": "78660790-6", "NOMBRE": "IMPORTADORA Y DISTRIBUIDORA RODAR LIMITADA", "DIRECCION": "AVDA. BALMACEDA 1220,TEMUCO.", "GIRO": "MANTENCION, REPARACION, VENTA DE PARTES Y", "ESTADO": "POTENCIAL CLIENTE", "COMUNA": "TEMUCO", "REGION": "REGION DE LA ARAUCANIA", "MES": "INICIAL", "PAIS": "CONTINENTE", "x": -72.583396256399993, "y": -38.734215335199998 }, "geometry": { "type": "Point", "coordinates": [ -72.583396256410097, -38.734215335193603 ] } },
{ "type": "Feature", "properties": { "ID": 83.0, "RUT": "07946806-1", "NOMBRE": "PAREDES TORRES JULIO CESAR", "DIRECCION": "AVDA. BALMACEDA 1283,TEMUCO.", "GIRO": "BARRACA Y TALLER DE RECICLAJE DE ACERO", "ESTADO": "POTENCIAL CLIENTE", "COMUNA": "TEMUCO", "REGION": "REGION DE LA ARAUCANIA", "MES": "INICIAL", "PAIS": "CONTINENTE", "x": -72.582713549100006, "y": -38.733733427200001 }, "geometry": { "type": "Point", "coordinates": [ -72.582713549084303, -38.733733427220699 ] } },
{ "type": "Feature", "properties": { "ID": 84.0, "RUT": "08413543-7", "NOMBRE": "ARAVENA OLAVE YOLANDA", "DIRECCION": "AVDA. BALMACEDA 144,TEMUCO.", "GIRO": "TALLER MECANICO", "ESTADO": "POTENCIAL CLIENTE", "COMUNA": "TEMUCO", "REGION": "REGION DE LA ARAUCANIA", "MES": "INICIAL", "PAIS": "CONTINENTE", "x": -72.5978778482, "y": -38.732131052100002 }, "geometry": { "type": "Point", "coordinates": [ -72.597877848210203, -38.732131052106801 ] } },
{ "type": "Feature", "properties": { "ID": 85.0, "RUT": "76037704-K", "NOMBRE": "NUEVA AGROCOMERCIAL TOTIHUE LTDA.", "DIRECCION": "AVDA. BALMACEDA 1510,TEMUCO.", "GIRO": "VENTA DE ARTICULOS DE FERRETERIA", "ESTADO": "POTENCIAL CLIENTE", "COMUNA": "TEMUCO", "REGION": "REGION DE LA ARAUCANIA", "MES": "INICIAL", "PAIS": "CONTINENTE", "x": -72.579395059199996, "y": -38.734809930799997 }, "geometry": { "type": "Point", "coordinates": [ -72.579395059158401, -38.734809930809 ] } },
{ "type": "Feature", "properties": { "ID": 86.0, "RUT": "76002674-3", "NOMBRE": "EMPRESA TODO REMOLQUE LIMITADA", "DIRECCION": "AVDA. BALMACEDA 984,TEMUCO.", "GIRO": "VTA.RPTOS VEHICULOS", "ESTADO": "POTENCIAL CLIENTE", "COMUNA": "TEMUCO", "REGION": "REGION DE LA ARAUCANIA", "MES": "INICIAL", "PAIS": "CONTINENTE", "x": -72.586855468400003, "y": -38.733744533 }, "geometry": { "type": "Point", "coordinates": [ -72.586855468417497, -38.733744533039697 ] } },
{ "type": "Feature", "properties": { "ID": 87.0, "RUT": "76324634-5", "NOMBRE": "TODOTECHO SPA.", "DIRECCION": "AVDA. BERNARDO O´HIGGINS 0641,TEMUCO.", "GIRO": "COMPRA Y VENTA ARTICULOS DE CONSTRUCCIÓN Y FERRETERÍA", "ESTADO": "POTENCIAL CLIENTE", "COMUNA": "TEMUCO", "REGION": "REGION DE LA ARAUCANIA", "MES": "INICIAL", "PAIS": "CONTINENTE", "x": -72.612071776999997, "y": -38.740373519800002 }, "geometry": { "type": "Point", "coordinates": [ -72.612071776959198, -38.740373519842898 ] } },
{ "type": "Feature", "properties": { "ID": 88.0, "RUT": "81198100-1", "NOMBRE": "JANSSEN S.A.", "DIRECCION": "AVDA. CAUPOLICAN 0106,TEMUCO.", "GIRO": "VENTA DE REPUESTOS Y MAQUINARIAS", "ESTADO": "POTENCIAL CLIENTE", "COMUNA": "TEMUCO", "REGION": "REGION DE LA ARAUCANIA", "MES": "INICIAL", "PAIS": "CONTINENTE", "x": -72.602993903799998, "y": -38.741194907500002 }, "geometry": { "type": "Point", "coordinates": [ -72.602993903794996, -38.741194907479397 ] } },
{ "type": "Feature", "properties": { "ID": 89.0, "RUT": "86771700-5", "NOMBRE": "TURBODAL S.A.", "DIRECCION": "AVDA. CAUPOLICAN 01690,TEMUCO.", "GIRO": "VTA. REPUESTOS AUTOM", "ESTADO": "POTENCIAL CLIENTE", "COMUNA": "TEMUCO", "REGION": "REGION DE LA ARAUCANIA", "MES": "INICIAL", "PAIS": "CONTINENTE", "x": -72.574219359599994, "y": -38.725257277799997 }, "geometry": { "type": "Point", "coordinates": [ -72.574219359593499, -38.725257277849202 ] } },
{ "type": "Feature", "properties": { "ID": 90.0, "RUT": "83366800-5", "NOMBRE": "ANTONIO CASTILLO S.A.", "DIRECCION": "AVDA. CAUPOLICAN 0301,TEMUCO.", "GIRO": "RPTOS.VEHIC.MOTORIZA", "ESTADO": "POTENCIAL CLIENTE", "COMUNA": "TEMUCO", "REGION": "REGION DE LA ARAUCANIA", "MES": "INICIAL", "PAIS": "CONTINENTE", "x": -72.606577754699998, "y": -38.743145585000001 }, "geometry": { "type": "Point", "coordinates": [ -72.606577754729599, -38.743145585012797 ] } },
{ "type": "Feature", "properties": { "ID": 91.0, "RUT": "76431730-0", "NOMBRE": "COMERCIAL WILFREDO QUINTANA MANZUR LIMITADA", "DIRECCION": "AVDA. CAUPOLICAN 0302,TEMUCO.", "GIRO": "VTA.LUBRICANTES", "ESTADO": "POTENCIAL CLIENTE", "COMUNA": "TEMUCO", "REGION": "REGION DE LA ARAUCANIA", "MES": "INICIAL", "PAIS": "CONTINENTE", "x": -72.605975796099997, "y": -38.743296919899997 }, "geometry": { "type": "Point", "coordinates": [ -72.605975796134999, -38.743296919910101 ] } },
{ "type": "Feature", "properties": { "ID": 92.0, "RUT": "05593012-0", "NOMBRE": "ILLANES PACHECO JAVIER ALFONSO", "DIRECCION": "AVDA. CAUPOLICAN 0498,TEMUCO.", "GIRO": "VENTA DE LUBRICANTES Y ACCESORIOS VEHICULOS", "ESTADO": "POTENCIAL CLIENTE", "COMUNA": "TEMUCO", "REGION": "REGION DE LA ARAUCANIA", "MES": "INICIAL", "PAIS": "CONTINENTE", "x": -72.607718748699995, "y": -38.744694434700001 }, "geometry": { "type": "Point", "coordinates": [ -72.607718748660901, -38.744694434742499 ] } },
{ "type": "Feature", "properties": { "ID": 93.0, "RUT": "78114430-4", "NOMBRE": "DISTRIBUIDORA COMERCIAL ARGANDOÑA LTDA.", "DIRECCION": "AVDA. CAUPOLICAN 110,TEMUCO.", "GIRO": "REPTOS.AUTOMOTRICES", "ESTADO": "POTENCIAL CLIENTE", "COMUNA": "TEMUCO", "REGION": "REGION DE LA ARAUCANIA", "MES": "INICIAL", "PAIS": "CONTINENTE", "x": -72.599914054400003, "y": -38.738801675200001 }, "geometry": { "type": "Point", "coordinates": [ -72.599914054409894, -38.7388016751922 ] } },
{ "type": "Feature", "properties": { "ID": 94.0, "RUT": "78768790-3", "NOMBRE": "ZURITA Y FABRES LTDA.", "DIRECCION": "AVDA. CAUPOLICAN 1382,TEMUCO.", "GIRO": "MAQ,MOTORES.RPTOS.", "ESTADO": "POTENCIAL CLIENTE", "COMUNA": "TEMUCO", "REGION": "REGION DE LA ARAUCANIA", "MES": "INICIAL", "PAIS": "CONTINENTE", "x": -72.579942840300006, "y": -38.728904888300001 }, "geometry": { "type": "Point", "coordinates": [ -72.579942840348906, -38.7289048882797 ] } },
{ "type": "Feature", "properties": { "ID": 95.0, "RUT": "79853470-K", "NOMBRE": "AUTOMOTRIZ CORDILLERA S. A.", "DIRECCION": "AVDA. CAUPOLICAN 1476,TEMUCO.", "GIRO": "VENTA REPUESTOS Y SERV TECNICO", "ESTADO": "POTENCIAL CLIENTE", "COMUNA": "TEMUCO", "REGION": "REGION DE LA ARAUCANIA", "MES": "INICIAL", "PAIS": "CONTINENTE", "x": -72.578894326400004, "y": -38.7286625602 }, "geometry": { "type": "Point", "coordinates": [ -72.578894326383306, -38.728662560222602 ] } },
{ "type": "Feature", "properties": { "ID": 96.0, "RUT": "96803460-K", "NOMBRE": "SHERWIN WILLIAMS CHILE S.A.", "DIRECCION": "AVDA. CAUPOLICAN 1488,TEMUCO.", "GIRO": "FERRETERIA", "ESTADO": "POTENCIAL CLIENTE", "COMUNA": "TEMUCO", "REGION": "REGION DE LA ARAUCANIA", "MES": "INICIAL", "PAIS": "CONTINENTE", "x": -72.578364699600002, "y": -38.727994317799997 }, "geometry": { "type": "Point", "coordinates": [ -72.578364699621403, -38.727994317768903 ] } },
{ "type": "Feature", "properties": { "ID": 97.0, "RUT": "81762400-6", "NOMBRE": "SILVA HNOS. Y CIA.", "DIRECCION": "AVDA. CAUPOLICAN 1507,TEMUCO.", "GIRO": "EST.SERV.TALLER ELE", "ESTADO": "POTENCIAL CLIENTE", "COMUNA": "TEMUCO", "REGION": "REGION DE LA ARAUCANIA", "MES": "INICIAL", "PAIS": "CONTINENTE", "x": -72.5775483611, "y": -38.727032456499998 }, "geometry": { "type": "Point", "coordinates": [ -72.577548361084794, -38.727032456547498 ] } },
{ "type": "Feature", "properties": { "ID": 98.0, "RUT": "77186930-0", "NOMBRE": "SOC. COMERCIAL MOTO SERVICE LIMITADA", "DIRECCION": "AVDA. CAUPOLICAN 489,TEMUCO.", "GIRO": "COMPRA VENTA VEHICULOS MOTORIZADOS ACCESORIOS Y REPUESTOS", "ESTADO": "POTENCIAL CLIENTE", "COMUNA": "TEMUCO", "REGION": "REGION DE LA ARAUCANIA", "MES": "INICIAL", "PAIS": "CONTINENTE", "x": -72.594287264599998, "y": -38.735988818199999 }, "geometry": { "type": "Point", "coordinates": [ -72.594287264646198, -38.7359888182134 ] } },
{ "type": "Feature", "properties": { "ID": 99.0, "RUT": "77171753-5", "NOMBRE": "FERRRETERIA Y CONSTRUCCION VICTOR ELGUETA ZARATE E.I.R.L.", "DIRECCION": "AVDA. COSTANERA 01670,TEMUCO.", "GIRO": "FERRETERIA", "ESTADO": "POTENCIAL CLIENTE", "COMUNA": "TEMUCO", "REGION": "REGION DE LA ARAUCANIA", "MES": "INICIAL", "PAIS": "CONTINENTE", "x": -72.557664856000002, "y": -38.725686243600002 }, "geometry": { "type": "Point", "coordinates": [ -72.557664855978899, -38.725686243646699 ] } },
{ "type": "Feature", "properties": { "ID": 100.0, "RUT": "13315534-1", "NOMBRE": "CAYUL QUINTANA LUIS IVAN", "DIRECCION": "AVDA. COSTANERA 02050,TEMUCO.", "GIRO": "VENTA DE ARTICULOS DE FERRETERIA", "ESTADO": "POTENCIAL CLIENTE", "COMUNA": "TEMUCO", "REGION": "REGION DE LA ARAUCANIA", "MES": "INICIAL", "PAIS": "CONTINENTE", "x": -72.556302054499994, "y": -38.722231611799998 }, "geometry": { "type": "Point", "coordinates": [ -72.556302054494694, -38.722231611820497 ] } },
{ "type": "Feature", "properties": { "ID": 101.0, "RUT": "76061280-4", "NOMBRE": "COMERCIAL EQUIPRO LIMITADA", "DIRECCION": "AVDA. GENERAL PRIETO NORTE 0102,TEMUCO.", "GIRO": "VENTA Y ARRIENDO DE MAQUINARIA", "ESTADO": "POTENCIAL CLIENTE", "COMUNA": "TEMUCO", "REGION": "REGION DE LA ARAUCANIA", "MES": "INICIAL", "PAIS": "CONTINENTE", "x": -72.599962633000004, "y": -38.730659854300001 }, "geometry": { "type": "Point", "coordinates": [ -72.599962633017299, -38.730659854271202 ] } },
{ "type": "Feature", "properties": { "ID": 102.0, "RUT": "78660790-6", "NOMBRE": "IMPORTADORA Y DISTRIBUIDORA RODAR LIMITADA", "DIRECCION": "AVDA. J.M. BALMACEDA 1210,TEMUCO.", "GIRO": "VENTA DE RODAMIENTOS, RETENES Y ACCESORIO PARA VEHICULO", "ESTADO": "POTENCIAL CLIENTE", "COMUNA": "TEMUCO", "REGION": "REGION DE LA ARAUCANIA", "MES": "INICIAL", "PAIS": "CONTINENTE", "x": -72.583474387699994, "y": -38.734225608899997 }, "geometry": { "type": "Point", "coordinates": [ -72.583474387741006, -38.734225608895898 ] } },
{ "type": "Feature", "properties": { "ID": 103.0, "RUT": "76127998-K", "NOMBRE": "FERRETERIA EL AGUILA KEHR E.I.R.L.", "DIRECCION": "AVDA. J.M. BALMACEDA 1485,TEMUCO.", "GIRO": "FERRETERIA", "ESTADO": "POTENCIAL CLIENTE", "COMUNA": "TEMUCO", "REGION": "REGION DE LA ARAUCANIA", "MES": "INICIAL", "PAIS": "CONTINENTE", "x": -72.579961787200006, "y": -38.7341853804 }, "geometry": { "type": "Point", "coordinates": [ -72.579961787205704, -38.734185380378896 ] } },
{ "type": "Feature", "properties": { "ID": 104.0, "RUT": "10253011-K", "NOMBRE": "RIQUELME BELMAR LUIS EDUARDO", "DIRECCION": "AVDA. J.M. BALMACEDA 945,TEMUCO.", "GIRO": "FERRETERIA", "ESTADO": "POTENCIAL CLIENTE", "COMUNA": "TEMUCO", "REGION": "REGION DE LA ARAUCANIA", "MES": "INICIAL", "PAIS": "CONTINENTE", "x": -72.587057745899997, "y": -38.733084237 }, "geometry": { "type": "Point", "coordinates": [ -72.587057745943099, -38.733084237042199 ] } },
{ "type": "Feature", "properties": { "ID": 105.0, "RUT": "77362254-K", "NOMBRE": "FERRETERIA CRISTIAN MARCELO CAROD E.I.R.L.", "DIRECCION": "AVDA. JAVIERA CARRERA 0385,TEMUCO.", "GIRO": "FERRETERIA", "ESTADO": "POTENCIAL CLIENTE", "COMUNA": "TEMUCO", "REGION": "REGION DE LA ARAUCANIA", "MES": "INICIAL", "PAIS": "CONTINENTE", "x": -72.623811562599997, "y": -38.719987096099999 }, "geometry": { "type": "Point", "coordinates": [ -72.623811562639006, -38.719987096148003 ] } },
{ "type": "Feature", "properties": { "ID": 106.0, "RUT": "96792430-K", "NOMBRE": "SODIMAC S.A.", "DIRECCION": "AVDA. LAS ENCINAS 02470,TEMUCO.", "GIRO": "CENTRO DE SERVICIO AUTOMOTOR", "ESTADO": "POTENCIAL CLIENTE", "COMUNA": "TEMUCO", "REGION": "REGION DE LA ARAUCANIA", "MES": "INICIAL", "PAIS": "CONTINENTE", "x": -72.638884401799999, "y": -38.742501910400001 }, "geometry": { "type": "Point", "coordinates": [ -72.638884401765793, -38.742501910384703 ] } },
{ "type": "Feature", "properties": { "ID": 107.0, "RUT": "10629812-2", "NOMBRE": "RAMOS CHUREO OSCAR RICARDO", "DIRECCION": "AVDA. MANUEL RECABARREN 01371,TEMUCO.", "GIRO": "SALA DE VENTAS DE ARTICULOS DE FERRETERIA", "ESTADO": "POTENCIAL CLIENTE", "COMUNA": "TEMUCO", "REGION": "REGION DE LA ARAUCANIA", "MES": "INICIAL", "PAIS": "CONTINENTE", "x": -72.624695484499995, "y": -38.754224772199997 }, "geometry": { "type": "Point", "coordinates": [ -72.624695484462904, -38.754224772205099 ] } },
{ "type": "Feature", "properties": { "ID": 108.0, "RUT": "04379581-3", "NOMBRE": "BREVE LATORRE RIXON", "DIRECCION": "AVDA. MANUEL RECABARREN 01502,TEMUCO.", "GIRO": "BARRACAS DE MADERAS", "ESTADO": "POTENCIAL CLIENTE", "COMUNA": "TEMUCO", "REGION": "REGION DE LA ARAUCANIA", "MES": "INICIAL", "PAIS": "CONTINENTE", "x": -72.627234043000001, "y": -38.754937089099997 }, "geometry": { "type": "Point", "coordinates": [ -72.627234043031294, -38.754937089131403 ] } },
{ "type": "Feature", "properties": { "ID": 109.0, "RUT": "06647963-3", "NOMBRE": "MOLINA MORALES DEMETRIO OMAR", "DIRECCION": "AVDA. MANUEL RECABARREN 01780,TEMUCO.", "GIRO": "REP.AUTOMOV.Y MOTOC.", "ESTADO": "POTENCIAL CLIENTE", "COMUNA": "TEMUCO", "REGION": "REGION DE LA ARAUCANIA", "MES": "INICIAL", "PAIS": "CONTINENTE", "x": -72.632330201000002, "y": -38.754941514000002 }, "geometry": { "type": "Point", "coordinates": [ -72.632330201033795, -38.754941513953497 ] } },
{ "type": "Feature", "properties": { "ID": 110.0, "RUT": "77728570-K", "NOMBRE": "RODRIGO STAURDO Y CIA LTDA", "DIRECCION": "AVDA. MANUEL RECABARREN 03780,TEMUCO.", "GIRO": "LUBRICENTRO", "ESTADO": "POTENCIAL CLIENTE", "COMUNA": "TEMUCO", "REGION": "REGION DE LA ARAUCANIA", "MES": "INICIAL", "PAIS": "CONTINENTE", "x": -72.657503315499994, "y": -38.757328704599999 }, "geometry": { "type": "Point", "coordinates": [ -72.657503315479204, -38.757328704560997 ] } },
{ "type": "Feature", "properties": { "ID": 111.0, "RUT": "08097300-4", "NOMBRE": "TUMA ZEDAN JUAN FERNANDO", "DIRECCION": "AVDA. PABLO NERUDA 02050,TEMUCO.", "GIRO": "FERRETERIA", "ESTADO": "POTENCIAL CLIENTE", "COMUNA": "TEMUCO", "REGION": "REGION DE LA ARAUCANIA", "MES": "INICIAL", "PAIS": "CONTINENTE", "x": -72.631880394999996, "y": -38.738689493400003 }, "geometry": { "type": "Point", "coordinates": [ -72.631880395018399, -38.738689493371197 ] } },
{ "type": "Feature", "properties": { "ID": 112.0, "RUT": "77372983-2", "NOMBRE": "FERRETERIA CARLOS PATRICIO POSECK SANCHEZ EIRL", "DIRECCION": "AVDA. PABLO NERUDA 1565,TEMUCO.", "GIRO": "VENTA DE ARTICULOS DE FERRETERIA", "ESTADO": "POTENCIAL CLIENTE", "COMUNA": "TEMUCO", "REGION": "REGION DE LA ARAUCANIA", "MES": "INICIAL", "PAIS": "CONTINENTE", "x": -72.625593963599997, "y": -38.7390379673 }, "geometry": { "type": "Point", "coordinates": [ -72.625593963560704, -38.739037967315298 ] } },
{ "type": "Feature", "properties": { "ID": 113.0, "RUT": "12748385-K", "NOMBRE": "DELGADO ACOSTA BRUNO RODRIGO", "DIRECCION": "AVDA. PEDRO DE VALDIVIA 02070,TEMUCO.", "GIRO": "VENTA ACCESORIOS DE AUTOMOVIL", "ESTADO": "POTENCIAL CLIENTE", "COMUNA": "TEMUCO", "REGION": "REGION DE LA ARAUCANIA", "MES": "INICIAL", "PAIS": "CONTINENTE", "x": -72.619133236500005, "y": -38.721372269699998 }, "geometry": { "type": "Point", "coordinates": [ -72.619133236513903, -38.7213722696793 ] } },
{ "type": "Feature", "properties": { "ID": 114.0, "RUT": "76419283-4", "NOMBRE": "COMERCIAL MENA LIMITADA", "DIRECCION": "AVDA. PEDRO DE VALDIVIA 0524,TEMUCO.", "GIRO": "VENTA REPUESTOS AUTOMOTRICES, ACCESORIOS VEHICULOS", "ESTADO": "POTENCIAL CLIENTE", "COMUNA": "TEMUCO", "REGION": "REGION DE LA ARAUCANIA", "MES": "INICIAL", "PAIS": "CONTINENTE", "x": -72.6061005209, "y": -38.730483363399998 }, "geometry": { "type": "Point", "coordinates": [ -72.606100520948004, -38.730483363371697 ] } },
{ "type": "Feature", "properties": { "ID": 115.0, "RUT": "13112834-7", "NOMBRE": "AGUILAR SAN MARTIN DANIEL ALEJANDRO", "DIRECCION": "AVDA. PEDRO DE VALDIVIA 0682,TEMUCO.", "GIRO": "VENTA REPUESTOS MAQUINARIA PESADA Y ART. SEGURIDAD", "ESTADO": "POTENCIAL CLIENTE", "COMUNA": "TEMUCO", "REGION": "REGION DE LA ARAUCANIA", "MES": "INICIAL", "PAIS": "CONTINENTE", "x": -72.607807782600005, "y": -38.7299044556 }, "geometry": { "type": "Point", "coordinates": [ -72.607807782572493, -38.729904455596397 ] } },
{ "type": "Feature", "properties": { "ID": 116.0, "RUT": "77337500-3", "NOMBRE": "DISTRIBUIDORA DE NEUMATICOS DEL SUR LTDA", "DIRECCION": "AVDA. PEDRO DE VALDIVIA 0785,TEMUCO.", "GIRO": "VENTA NEUMATICOS, REPUESTOS VEHIC. MOTORIZADOS", "ESTADO": "POTENCIAL CLIENTE", "COMUNA": "TEMUCO", "REGION": "REGION DE LA ARAUCANIA", "MES": "INICIAL", "PAIS": "CONTINENTE", "x": -72.610053853400004, "y": -38.7281515715 }, "geometry": { "type": "Point", "coordinates": [ -72.610053853390198, -38.728151571465702 ] } },
{ "type": "Feature", "properties": { "ID": 117.0, "RUT": "77285011-5", "NOMBRE": "AUTOMOTORES SPA", "DIRECCION": "AVDA. PEDRO DE VALDIVIA 080,TEMUCO.", "GIRO": "COMPRA VENTA DE VEHICULOS Y MANTENIMIENTO", "ESTADO": "POTENCIAL CLIENTE", "COMUNA": "TEMUCO", "REGION": "REGION DE LA ARAUCANIA", "MES": "INICIAL", "PAIS": "CONTINENTE", "x": -72.601617294500002, "y": -38.733069138700003 }, "geometry": { "type": "Point", "coordinates": [ -72.601617294507307, -38.733069138738202 ] } },
{ "type": "Feature", "properties": { "ID": 118.0, "RUT": "76137590-3", "NOMBRE": "SOC.COMERCIAL E INV. MATUS Y GAJARDO LTDA.", "DIRECCION": "AVDA. PEDRO DE VALDIVIA 0940,TEMUCO.", "GIRO": "TALLER MECANICO", "ESTADO": "POTENCIAL CLIENTE", "COMUNA": "TEMUCO", "REGION": "REGION DE LA ARAUCANIA", "MES": "INICIAL", "PAIS": "CONTINENTE", "x": -72.601617426100006, "y": -38.733037013400001 }, "geometry": { "type": "Point", "coordinates": [ -72.6016174261038, -38.733037013438199 ] } },
{ "type": "Feature", "properties": { "ID": 119.0, "RUT": "77639530-7", "NOMBRE": "INVERSIONES Y SERVICIOS MOMAK LIMITADA", "DIRECCION": "AVDA. RUDECINDO ORTEGA 01110,TEMUCO.", "GIRO": "CENTRO LUBRICACION", "ESTADO": "POTENCIAL CLIENTE", "COMUNA": "TEMUCO", "REGION": "REGION DE LA ARAUCANIA", "MES": "INICIAL", "PAIS": "CONTINENTE", "x": -72.570445988499998, "y": -38.721415386499999 }, "geometry": { "type": "Point", "coordinates": [ -72.570445988454907, -38.721415386450602 ] } },
{ "type": "Feature", "properties": { "ID": 120.0, "RUT": "77639530-7", "NOMBRE": "INVERSIONES Y SERVICIOS MOMAK LIMITADA", "DIRECCION": "AVDA. RUDECINDO ORTEGA 01118,TEMUCO.", "GIRO": "VENTA DE ACCESORIOS Y LUBRICANTES", "ESTADO": "POTENCIAL CLIENTE", "COMUNA": "TEMUCO", "REGION": "REGION DE LA ARAUCANIA", "MES": "INICIAL", "PAIS": "CONTINENTE", "x": -72.570857497199995, "y": -38.721807329500002 }, "geometry": { "type": "Point", "coordinates": [ -72.570857497225305, -38.721807329522903 ] } },
{ "type": "Feature", "properties": { "ID": 121.0, "RUT": "15242267-9", "NOMBRE": "FUENTES CARRASCO FERNANDO ALEX", "DIRECCION": "AVDA. RUDECINDO ORTEGA 01229,TEMUCO.", "GIRO": "VENTA DE REPUESTOS Y ACCESORIOS AUTOMOTRICES", "ESTADO": "POTENCIAL CLIENTE", "COMUNA": "TEMUCO", "REGION": "REGION DE LA ARAUCANIA", "MES": "INICIAL", "PAIS": "CONTINENTE", "x": -72.569788826500002, "y": -38.721291428400001 }, "geometry": { "type": "Point", "coordinates": [ -72.5697888265003, -38.721291428367998 ] } },
{ "type": "Feature", "properties": { "ID": 122.0, "RUT": "76334992-6", "NOMBRE": "SERVICIOS Y AUTOMOVILES VINET LTDA", "DIRECCION": "AVDA. RUDECINDO ORTEGA 02285,TEMUCO.", "GIRO": "COMPRA VENTA DE VEHICULOS Y REPUESTOS", "ESTADO": "POTENCIAL CLIENTE", "COMUNA": "TEMUCO", "REGION": "REGION DE LA ARAUCANIA", "MES": "INICIAL", "PAIS": "CONTINENTE", "x": -72.556130902500001, "y": -38.709378696999998 }, "geometry": { "type": "Point", "coordinates": [ -72.556130902527599, -38.709378696988097 ] } },
{ "type": "Feature", "properties": { "ID": 123.0, "RUT": "96605720-3", "NOMBRE": "LATIN EQUIPMENT CHILE S.A.", "DIRECCION": "AVDA. RUDECINDO ORTEGA 02500,TEMUCO.", "GIRO": "VENTA DE REPUESTOS Y SERVICIOS DE MANTENCION DE MAQUINARIA", "ESTADO": "POTENCIAL CLIENTE", "COMUNA": "TEMUCO", "REGION": "REGION DE LA ARAUCANIA", "MES": "INICIAL", "PAIS": "CONTINENTE", "x": -72.553679548999995, "y": -38.705626107999997 }, "geometry": { "type": "Point", "coordinates": [ -72.553679549001302, -38.705626108049401 ] } },
{ "type": "Feature", "properties": { "ID": 124.0, "RUT": "76072691-5", "NOMBRE": "HDJ SPA", "DIRECCION": "AVDA. SAN MARTIN 01191,TEMUCO.", "GIRO": "VENTA DE REPUESTOS Y ACCESORIOS DE VEHÍCULOS.", "ESTADO": "POTENCIAL CLIENTE", "COMUNA": "TEMUCO", "REGION": "REGION DE LA ARAUCANIA", "MES": "INICIAL", "PAIS": "CONTINENTE", "x": -72.618422890999994, "y": -38.737231503300002 }, "geometry": { "type": "Point", "coordinates": [ -72.618422890987901, -38.737231503343999 ] } },
{ "type": "Feature", "properties": { "ID": 125.0, "RUT": "76972338-2", "NOMBRE": "COMERCIAL JOSE MARCELO REYES CATRIAN EIRL", "DIRECCION": "AVDA. SAN MARTIN 0174,TEMUCO.", "GIRO": "LAVADO DE VEHICULOS Y VENTA DE ACCESORIOS", "ESTADO": "POTENCIAL CLIENTE", "COMUNA": "TEMUCO", "REGION": "REGION DE LA ARAUCANIA", "MES": "INICIAL", "PAIS": "CONTINENTE", "x": -72.599543830200005, "y": -38.741379682500003 }, "geometry": { "type": "Point", "coordinates": [ -72.599543830245494, -38.741379682521 ] } },
{ "type": "Feature", "properties": { "ID": 126.0, "RUT": "15260418-1", "NOMBRE": "FIERRO CLAVEL PATRICIO ANDRÉS", "DIRECCION": "AVDA. SAN MARTIN 02150,TEMUCO.", "GIRO": "VULCANIZACION", "ESTADO": "POTENCIAL CLIENTE", "COMUNA": "TEMUCO", "REGION": "REGION DE LA ARAUCANIA", "MES": "INICIAL", "PAIS": "CONTINENTE", "x": -72.631635639699994, "y": -38.7342281906 }, "geometry": { "type": "Point", "coordinates": [ -72.631635639749803, -38.734228190579401 ] } },
{ "type": "Feature", "properties": { "ID": 127.0, "RUT": "81464600-9", "NOMBRE": "AUTOMOVIL CLUB DE CHILE", "DIRECCION": "AVDA. SAN MARTIN 0278,TEMUCO.", "GIRO": "LUBRICENTRO", "ESTADO": "POTENCIAL CLIENTE", "COMUNA": "TEMUCO", "REGION": "REGION DE LA ARAUCANIA", "MES": "INICIAL", "PAIS": "CONTINENTE", "x": -72.606913783799996, "y": -38.7404513567 }, "geometry": { "type": "Point", "coordinates": [ -72.606913783835594, -38.740451356737303 ] } },
{ "type": "Feature", "properties": { "ID": 128.0, "RUT": "77043196-4", "NOMBRE": "SOCIEDAD FERRETERIA H Y C LIMITADA", "DIRECCION": "AVDA. SAN MARTIN 0567,TEMUCO.", "GIRO": "FERRETERIA", "ESTADO": "POTENCIAL CLIENTE", "COMUNA": "TEMUCO", "REGION": "REGION DE LA ARAUCANIA", "MES": "INICIAL", "PAIS": "CONTINENTE", "x": -72.610418194600001, "y": -38.739202523099998 }, "geometry": { "type": "Point", "coordinates": [ -72.610418194599603, -38.7392025231266 ] } },
{ "type": "Feature", "properties": { "ID": 129.0, "RUT": "10444218-8", "NOMBRE": "REIDENBACH TORRES JAVIER ANTONIO", "DIRECCION": "AVDA. SAN MARTIN 0674,TEMUCO.", "GIRO": "COMPRAVENTA VEHICULOS REPUESTOS Y ACCESORIOS", "ESTADO": "POTENCIAL CLIENTE", "COMUNA": "TEMUCO", "REGION": "REGION DE LA ARAUCANIA", "MES": "INICIAL", "PAIS": "CONTINENTE", "x": -72.611958851200001, "y": -38.739567903999998 }, "geometry": { "type": "Point", "coordinates": [ -72.611958851189499, -38.739567903969501 ] } },
{ "type": "Feature", "properties": { "ID": 130.0, "RUT": "76115396-K", "NOMBRE": "SOC.COMERCIAL E INVERSIONES MAVICAR LTDA.", "DIRECCION": "AVDA. SAN MARTIN 136,TEMUCO.", "GIRO": "VTA.REPTOS,MANTENC.REPARAC.VEHICULOS MOTORIZADOS", "ESTADO": "POTENCIAL CLIENTE", "COMUNA": "TEMUCO", "REGION": "REGION DE LA ARAUCANIA", "MES": "INICIAL", "PAIS": "CONTINENTE", "x": -72.600186422899995, "y": -38.741637906599998 }, "geometry": { "type": "Point", "coordinates": [ -72.600186422856794, -38.741637906633599 ] } },
{ "type": "Feature", "properties": { "ID": 131.0, "RUT": "78329240-8", "NOMBRE": "HERIBERTO BARENDS Y COMPANIA LTDA.", "DIRECCION": "AVDA. SAN MARTIN 225,TEMUCO.", "GIRO": "FERRETERIA PINTURAS", "ESTADO": "POTENCIAL CLIENTE", "COMUNA": "TEMUCO", "REGION": "REGION DE LA ARAUCANIA", "MES": "INICIAL", "PAIS": "CONTINENTE", "x": -72.598861849100004, "y": -38.740967491200003 }, "geometry": { "type": "Point", "coordinates": [ -72.598861849138899, -38.740967491190503 ] } },
{ "type": "Feature", "properties": { "ID": 132.0, "RUT": "76479536-9", "NOMBRE": "COMERCIAL JEMCAR PARTS LIMITADA", "DIRECCION": "AVDA. SAN MARTIN 378,TEMUCO.", "GIRO": "VENTA DE REPUESTOS PARA VEHICULOS", "ESTADO": "POTENCIAL CLIENTE", "COMUNA": "TEMUCO", "REGION": "REGION DE LA ARAUCANIA", "MES": "INICIAL", "PAIS": "CONTINENTE", "x": -72.596946808599995, "y": -38.741900436400002 }, "geometry": { "type": "Point", "coordinates": [ -72.596946808553497, -38.741900436448802 ] } },
{ "type": "Feature", "properties": { "ID": 133.0, "RUT": "76647555-8", "NOMBRE": "COMERCIAL JUAN CARLOS GUTIERREZ RIVAS E. I. R. L", "DIRECCION": "AVDA. SAN MARTIN 415,TEMUCO.", "GIRO": "VENTA ARTICULOS ELECTRONICOS Y ACCESORIOS DE VEHICULOS", "ESTADO": "POTENCIAL CLIENTE", "COMUNA": "TEMUCO", "REGION": "REGION DE LA ARAUCANIA", "MES": "INICIAL", "PAIS": "CONTINENTE", "x": -72.596430235, "y": -38.741566188299998 }, "geometry": { "type": "Point", "coordinates": [ -72.596430234959001, -38.741566188300503 ] } },
{ "type": "Feature", "properties": { "ID": 134.0, "RUT": "77293921-3", "NOMBRE": "FERRETERIA PIZANI SPA", "DIRECCION": "AVDA. SAN MARTIN 424,TEMUCO.", "GIRO": "FERRETERIA", "ESTADO": "POTENCIAL CLIENTE", "COMUNA": "TEMUCO", "REGION": "REGION DE LA ARAUCANIA", "MES": "INICIAL", "PAIS": "CONTINENTE", "x": -72.596619108900001, "y": -38.7417835591 }, "geometry": { "type": "Point", "coordinates": [ -72.596619108886102, -38.741783559055101 ] } },
{ "type": "Feature", "properties": { "ID": 135.0, "RUT": "76311388-4", "NOMBRE": "SOCIEDAD MASSA MANRIQUEZ LIMITADA", "DIRECCION": "AVDA. SAN MARTIN 428,TEMUCO.", "GIRO": "VENTA DE REPUESTOS, PARTES Y PIEZAS MAQUINARIA PESADA", "ESTADO": "POTENCIAL CLIENTE", "COMUNA": "TEMUCO", "REGION": "REGION DE LA ARAUCANIA", "MES": "INICIAL", "PAIS": "CONTINENTE", "x": -72.596384037700005, "y": -38.742020474599997 }, "geometry": { "type": "Point", "coordinates": [ -72.596384037720995, -38.742020474632803 ] } },
{ "type": "Feature", "properties": { "ID": 136.0, "RUT": "81548400-2", "NOMBRE": "MILAN FABJANOVIC Y CIA. LTDA.", "DIRECCION": "AVDA. SAN MARTIN 498,TEMUCO.", "GIRO": "VENTA ARTICULOS DE FERRETERIA Y PERNOS", "ESTADO": "POTENCIAL CLIENTE", "COMUNA": "TEMUCO", "REGION": "REGION DE LA ARAUCANIA", "MES": "INICIAL", "PAIS": "CONTINENTE", "x": -72.595580362600003, "y": -38.741951418299998 }, "geometry": { "type": "Point", "coordinates": [ -72.595580362595697, -38.741951418326501 ] } },
{ "type": "Feature", "properties": { "ID": 137.0, "RUT": "76392671-0", "NOMBRE": "SOCIEDAD AUTOMOTRIZ G C LIMITADA", "DIRECCION": "AVDA. SAN MARTIN 566,TEMUCO.", "GIRO": "SERVICIO AUTOMOTOR, VENTA REPUESTOS, ACCESORIOS Y SIMUNIZADO", "ESTADO": "POTENCIAL CLIENTE", "COMUNA": "TEMUCO", "REGION": "REGION DE LA ARAUCANIA", "MES": "INICIAL", "PAIS": "CONTINENTE", "x": -72.594752946499995, "y": -38.742116143600001 }, "geometry": { "type": "Point", "coordinates": [ -72.594752946490104, -38.742116143552899 ] } },
{ "type": "Feature", "properties": { "ID": 138.0, "RUT": "79649140-K", "NOMBRE": "AUTOMOTORES GILDEMEISTER S.P.A", "DIRECCION": "AVDA. SAN MARTIN 656,TEMUCO.", "GIRO": "VENTA VEHICULOS, MAQUINARIA, REPUESTOS Y ACCESORIOS", "ESTADO": "POTENCIAL CLIENTE", "COMUNA": "TEMUCO", "REGION": "REGION DE LA ARAUCANIA", "MES": "INICIAL", "PAIS": "CONTINENTE", "x": -72.593618675299993, "y": -38.7423765769 }, "geometry": { "type": "Point", "coordinates": [ -72.593618675299695, -38.742376576940799 ] } },
{ "type": "Feature", "properties": { "ID": 139.0, "RUT": "76296863-0", "NOMBRE": "AUTOMOTRIZ PORTILLO SUR LIMITADA", "DIRECCION": "AVDA. SAN MARTIN 886,TEMUCO.", "GIRO": "VTA VEHICULOS, REPTOS TALLER MECANICO", "ESTADO": "POTENCIAL CLIENTE", "COMUNA": "TEMUCO", "REGION": "REGION DE LA ARAUCANIA", "MES": "INICIAL", "PAIS": "CONTINENTE", "x": -72.590253168700002, "y": -38.742795557400001 }, "geometry": { "type": "Point", "coordinates": [ -72.590253168742294, -38.742795557438498 ] } },
{ "type": "Feature", "properties": { "ID": 140.0, "RUT": "76509283-3", "NOMBRE": "IMPORTADORA Y COMERCIALIZADORA DE REPUESTOS REVIMAR LIMITADA", "DIRECCION": "BALMACEDA 1095,TEMUCO.", "GIRO": "VENTA DE REPUESTOS AUTOMOTRICES.", "ESTADO": "POTENCIAL CLIENTE", "COMUNA": "TEMUCO", "REGION": "REGION DE LA ARAUCANIA", "MES": "INICIAL", "PAIS": "CONTINENTE", "x": -72.585406175299994, "y": -38.733390512500002 }, "geometry": { "type": "Point", "coordinates": [ -72.585406175322404, -38.733390512497103 ] } },
{ "type": "Feature", "properties": { "ID": 141.0, "RUT": "11137686-7", "NOMBRE": "PEÑA CARRILLO MARIO ELIER", "DIRECCION": "BARROS ARANA 01691,TEMUCO.", "GIRO": "TALLER REPARACION VEHICULOS MOTORZ.", "ESTADO": "POTENCIAL CLIENTE", "COMUNA": "TEMUCO", "REGION": "REGION DE LA ARAUCANIA", "MES": "INICIAL", "PAIS": "CONTINENTE", "x": -72.555935618099994, "y": -38.716668173800002 }, "geometry": { "type": "Point", "coordinates": [ -72.555935618132693, -38.716668173808401 ] } },
{ "type": "Feature", "properties": { "ID": 142.0, "RUT": "90970000-0", "NOMBRE": "SALOMON SACK S.A.", "DIRECCION": "BARROS ARANA 028,TEMUCO.", "GIRO": "FERRETERIA Y VENTA DE FIERROS", "ESTADO": "POTENCIAL CLIENTE", "COMUNA": "TEMUCO", "REGION": "REGION DE LA ARAUCANIA", "MES": "INICIAL", "PAIS": "CONTINENTE", "x": -72.577202481399993, "y": -38.734207868 }, "geometry": { "type": "Point", "coordinates": [ -72.577202481375807, -38.734207868005299 ] } },
{ "type": "Feature", "properties": { "ID": 143.0, "RUT": "76700667-5", "NOMBRE": "EURO STAR REPUESTOS LIMITADA", "DIRECCION": "BASILIO URRUTIA 0297,TEMUCO.", "GIRO": "VENTA DE REPUESTOS AUTOMOTRICES", "ESTADO": "POTENCIAL CLIENTE", "COMUNA": "TEMUCO", "REGION": "REGION DE LA ARAUCANIA", "MES": "INICIAL", "PAIS": "CONTINENTE", "x": -72.577329712899996, "y": -38.731617331199999 }, "geometry": { "type": "Point", "coordinates": [ -72.577329712928503, -38.731617331241097 ] } },
{ "type": "Feature", "properties": { "ID": 144.0, "RUT": "76533236-2", "NOMBRE": "PINTURAS JOSE FERNANDO FLORES NEIRA EIRL", "DIRECCION": "BERNARDO O´HGIGGINS 0501,TEMUCO.", "GIRO": "FERRETERIA", "ESTADO": "POTENCIAL CLIENTE", "COMUNA": "TEMUCO", "REGION": "REGION DE LA ARAUCANIA", "MES": "INICIAL", "PAIS": "CONTINENTE", "x": -72.595565714200006, "y": -38.7428272358 }, "geometry": { "type": "Point", "coordinates": [ -72.595565714154105, -38.7428272358461 ] } },
{ "type": "Feature", "properties": { "ID": 145.0, "RUT": "06439229-8", "NOMBRE": "TOBAR PEREZ RAUL HERNAN", "DIRECCION": "BERNARDO OHIGGINS 0205,TEMUCO.", "GIRO": "VULCANIZACION", "ESTADO": "POTENCIAL CLIENTE", "COMUNA": "TEMUCO", "REGION": "REGION DE LA ARAUCANIA", "MES": "INICIAL", "PAIS": "CONTINENTE", "x": -72.606276047999998, "y": -38.741090092999997 }, "geometry": { "type": "Point", "coordinates": [ -72.606276047975399, -38.741090092954302 ] } },
{ "type": "Feature", "properties": { "ID": 146.0, "RUT": "76670811-0", "NOMBRE": "COMERCIAL SURAGRO LTDA", "DIRECCION": "BERNARDO OHIGGINS 0745,TEMUCO.", "GIRO": "SERV.TEC.VEHIC.MOTOR", "ESTADO": "POTENCIAL CLIENTE", "COMUNA": "TEMUCO", "REGION": "REGION DE LA ARAUCANIA", "MES": "INICIAL", "PAIS": "CONTINENTE", "x": -72.613054326099999, "y": -38.739986276700002 }, "geometry": { "type": "Point", "coordinates": [ -72.613054326124498, -38.739986276683297 ] } },
{ "type": "Feature", "properties": { "ID": 147.0, "RUT": "03038311-7", "NOMBRE": "LOBOS ARANEDA DIOJENES", "DIRECCION": "BERNARDO OHIGGINS 0899,TEMUCO.", "GIRO": "REP. VEHIC. MOTOR.", "ESTADO": "POTENCIAL CLIENTE", "COMUNA": "TEMUCO", "REGION": "REGION DE LA ARAUCANIA", "MES": "INICIAL", "PAIS": "CONTINENTE", "x": -72.615001475599996, "y": -38.739912379800003 }, "geometry": { "type": "Point", "coordinates": [ -72.615001475635495, -38.739912379793402 ] } },
{ "type": "Feature", "properties": { "ID": 148.0, "RUT": "76038466-6", "NOMBRE": "SOCIEDAD ZUNIGA AUTOMOTRIZ LIMITADA", "DIRECCION": "BERNARDO OHIGGINS 0994,TEMUCO.", "GIRO": "MANTENIMIENTO Y REPARACION DE VEHICULOS", "ESTADO": "POTENCIAL CLIENTE", "COMUNA": "TEMUCO", "REGION": "REGION DE LA ARAUCANIA", "MES": "INICIAL", "PAIS": "CONTINENTE", "x": -72.616472755000004, "y": -38.739976233299998 }, "geometry": { "type": "Point", "coordinates": [ -72.616472755034295, -38.739976233316597 ] } },
{ "type": "Feature", "properties": { "ID": 149.0, "RUT": "78839820-4", "NOMBRE": "SERV.AUTOMOTRIZ S.Y.M. LTDA.", "DIRECCION": "BERNARDO OHIGGINS 142,TEMUCO.", "GIRO": "SERV.TEC.AUTOMOTRIZ", "ESTADO": "POTENCIAL CLIENTE", "COMUNA": "TEMUCO", "REGION": "REGION DE LA ARAUCANIA", "MES": "INICIAL", "PAIS": "CONTINENTE", "x": -72.600393125099998, "y": -38.742639951400001 }, "geometry": { "type": "Point", "coordinates": [ -72.600393125114095, -38.7426399514246 ] } },
{ "type": "Feature", "properties": { "ID": 150.0, "RUT": "78193020-2", "NOMBRE": "MIGUEL MEDINA ALVARADO Y CIA.LTDA.", "DIRECCION": "BERNARDO OHIGGINS 250,TEMUCO.", "GIRO": "REP.AUTOMV.Y MOTOC.", "ESTADO": "POTENCIAL CLIENTE", "COMUNA": "TEMUCO", "REGION": "REGION DE LA ARAUCANIA", "MES": "INICIAL", "PAIS": "CONTINENTE", "x": -72.5991885018, "y": -38.742696495600001 }, "geometry": { "type": "Point", "coordinates": [ -72.599188501812094, -38.742696495620798 ] } },
{ "type": "Feature", "properties": { "ID": 151.0, "RUT": "86519000-K", "NOMBRE": "MARITANO Y EBENSPERGER LTDA.", "DIRECCION": "BERNARDO OHIGGINS 271,TEMUCO.", "GIRO": "SERVICIO TECNICO Y VENTA DE REPUESTOS DE VEHICULOS", "ESTADO": "POTENCIAL CLIENTE", "COMUNA": "TEMUCO", "REGION": "REGION DE LA ARAUCANIA", "MES": "INICIAL", "PAIS": "CONTINENTE", "x": -72.598732946200002, "y": -38.742089685899998 }, "geometry": { "type": "Point", "coordinates": [ -72.598732946204805, -38.742089685923602 ] } },
{ "type": "Feature", "properties": { "ID": 152.0, "RUT": "99599200-0", "NOMBRE": "AUTOMOVILES DECAR S.A.", "DIRECCION": "BERNARDO OHIGGINS 302,TEMUCO.", "GIRO": "MANTENCION Y REPARACION DE VEHICULOS", "ESTADO": "POTENCIAL CLIENTE", "COMUNA": "TEMUCO", "REGION": "REGION DE LA ARAUCANIA", "MES": "INICIAL", "PAIS": "CONTINENTE", "x": -72.598139639300001, "y": -38.742645762199999 }, "geometry": { "type": "Point", "coordinates": [ -72.598139639267998, -38.742645762237998 ] } },
{ "type": "Feature", "properties": { "ID": 153.0, "RUT": "76296863-0", "NOMBRE": "AUTOMOTRIZ PORTILLO SUR LIMITADA", "DIRECCION": "BERNARDO OHIGGINS 333,TEMUCO.", "GIRO": "SERV.TEC.AUTOMOTRIZ", "ESTADO": "POTENCIAL CLIENTE", "COMUNA": "TEMUCO", "REGION": "REGION DE LA ARAUCANIA", "MES": "INICIAL", "PAIS": "CONTINENTE", "x": -72.597856482500006, "y": -38.742308209699999 }, "geometry": { "type": "Point", "coordinates": [ -72.597856482508206, -38.7423082096809 ] } },
{ "type": "Feature", "properties": { "ID": 154.0, "RUT": "08944496-9", "NOMBRE": "MORA ZARATE MIGUEL ANGEL", "DIRECCION": "BRASIL 1415,TEMUCO.", "GIRO": "TALLER MECANICO VEHICULOS MOT.", "ESTADO": "POTENCIAL CLIENTE", "COMUNA": "TEMUCO", "REGION": "REGION DE LA ARAUCANIA", "MES": "INICIAL", "PAIS": "CONTINENTE", "x": -72.578388815400004, "y": -38.724908226099998 }, "geometry": { "type": "Point", "coordinates": [ -72.578388815387498, -38.724908226115801 ] } },
{ "type": "Feature", "properties": { "ID": 155.0, "RUT": "11969170-2", "NOMBRE": "SANDOVAL AVILÉS CHRISTIAN ERNESTO", "DIRECCION": "CACIQUE CHIHUAIHUEN 01681,TEMUCO.", "GIRO": "TALLER MECANICO", "ESTADO": "POTENCIAL CLIENTE", "COMUNA": "TEMUCO", "REGION": "REGION DE LA ARAUCANIA", "MES": "INICIAL", "PAIS": "CONTINENTE", "x": -72.557890635500002, "y": -38.713721981 }, "geometry": { "type": "Point", "coordinates": [ -72.557890635483702, -38.7137219810283 ] } },
{ "type": "Feature", "properties": { "ID": 156.0, "RUT": "77296120-0", "NOMBRE": "AUTOMOTRIZ DISSA LTDA.", "DIRECCION": "CARRERA 1095,TEMUCO.", "GIRO": "VENTA REPUESTOS VEHICULOS Y DIST. CLAVOS Y TORNILLOS", "ESTADO": "POTENCIAL CLIENTE", "COMUNA": "TEMUCO", "REGION": "REGION DE LA ARAUCANIA", "MES": "INICIAL", "PAIS": "CONTINENTE", "x": -72.598281385500002, "y": -38.743373882999997 }, "geometry": { "type": "Point", "coordinates": [ -72.598281385541299, -38.743373883016602 ] } },
{ "type": "Feature", "properties": { "ID": 157.0, "RUT": "06786919-2", "NOMBRE": "SEARLE VASQUEZ FRANCISCO JAVIER", "DIRECCION": "CARRERA 24,TEMUCO.", "GIRO": "REP.VEHIC.MOTORIZADO", "ESTADO": "POTENCIAL CLIENTE", "COMUNA": "TEMUCO", "REGION": "REGION DE LA ARAUCANIA", "MES": "INICIAL", "PAIS": "CONTINENTE", "x": -72.596093041900005, "y": -38.732415812200003 }, "geometry": { "type": "Point", "coordinates": [ -72.596093041914898, -38.732415812162202 ] } },
{ "type": "Feature", "properties": { "ID": 158.0, "RUT": "08949171-1", "NOMBRE": "QUEZADA RIVAS MARIA CECILIA", "DIRECCION": "CARRERA 50,TEMUCO.", "GIRO": "TALLER MECANICO", "ESTADO": "POTENCIAL CLIENTE", "COMUNA": "TEMUCO", "REGION": "REGION DE LA ARAUCANIA", "MES": "INICIAL", "PAIS": "CONTINENTE", "x": -72.5959536716, "y": -38.7327058455 }, "geometry": { "type": "Point", "coordinates": [ -72.595953671598096, -38.732705845499297 ] } },
{ "type": "Feature", "properties": { "ID": 159.0, "RUT": "06103082-4", "NOMBRE": "CRISTINO GUILLERMO GUTIÉRREZ SPRENGER", "DIRECCION": "CARRERA 68,TEMUCO.", "GIRO": "REP. AUTOMOVILES Y M", "ESTADO": "POTENCIAL CLIENTE", "COMUNA": "TEMUCO", "REGION": "REGION DE LA ARAUCANIA", "MES": "INICIAL", "PAIS": "CONTINENTE", "x": -72.595931447400005, "y": -38.732914085799997 }, "geometry": { "type": "Point", "coordinates": [ -72.595931447390399, -38.732914085801902 ] } },
{ "type": "Feature", "properties": { "ID": 160.0, "RUT": "79853470-K", "NOMBRE": "AUTOMOTRIZ CORDILLERA S. A.", "DIRECCION": "CAUPOLICAN 48,TEMUCO.", "GIRO": "VENTA DE VEHICULOS Y SERVICIO AUTOMOTOR", "ESTADO": "POTENCIAL CLIENTE", "COMUNA": "TEMUCO", "REGION": "REGION DE LA ARAUCANIA", "MES": "INICIAL", "PAIS": "CONTINENTE", "x": -72.601250883999995, "y": -38.740235263599999 }, "geometry": { "type": "Point", "coordinates": [ -72.601250883955899, -38.740235263557103 ] } },
{ "type": "Feature", "properties": { "ID": 161.0, "RUT": "76749365-7", "NOMBRE": "OS PERFORMANCE GARAGE E.I.R.L.", "DIRECCION": "CAUPOLICAN 761,TEMUCO.", "GIRO": "SERVICIO AUTOMOTRIZ", "ESTADO": "POTENCIAL CLIENTE", "COMUNA": "TEMUCO", "REGION": "REGION DE LA ARAUCANIA", "MES": "INICIAL", "PAIS": "CONTINENTE", "x": -72.590317482499998, "y": -38.733933778800001 }, "geometry": { "type": "Point", "coordinates": [ -72.590317482477701, -38.733933778761397 ] } },
{ "type": "Feature", "properties": { "ID": 162.0, "RUT": "06319526-K", "NOMBRE": "BASTIDAS VILLAGRAN LUIS ALBERTO", "DIRECCION": "CLAUDIO VICUÑA 01031,TEMUCO.", "GIRO": "REP.AUTOMOV.Y MOTOC.", "ESTADO": "POTENCIAL CLIENTE", "COMUNA": "TEMUCO", "REGION": "REGION DE LA ARAUCANIA", "MES": "INICIAL", "PAIS": "CONTINENTE", "x": -72.576020916800005, "y": -38.724068003 }, "geometry": { "type": "Point", "coordinates": [ -72.576020916841003, -38.7240680030447 ] } },
{ "type": "Feature", "properties": { "ID": 163.0, "RUT": "06966145-9", "NOMBRE": "VELOZO OSES HERNAN ANTONIO", "DIRECCION": "COSTANERA 01355,TEMUCO.", "GIRO": "VULCANIZACION", "ESTADO": "POTENCIAL CLIENTE", "COMUNA": "TEMUCO", "REGION": "REGION DE LA ARAUCANIA", "MES": "INICIAL", "PAIS": "CONTINENTE", "x": -72.560218477700005, "y": -38.732190412999998 }, "geometry": { "type": "Point", "coordinates": [ -72.560218477709896, -38.732190412982099 ] } },
{ "type": "Feature", "properties": { "ID": 164.0, "RUT": "13729083-9", "NOMBRE": "MELIHUEN MELIHUEN JAVIER ALFONSO", "DIRECCION": "DANTE 01651,TEMUCO.", "GIRO": "VULCANIZACION", "ESTADO": "POTENCIAL CLIENTE", "COMUNA": "TEMUCO", "REGION": "REGION DE LA ARAUCANIA", "MES": "INICIAL", "PAIS": "CONTINENTE", "x": -72.630054386300003, "y": -38.755293932599997 }, "geometry": { "type": "Point", "coordinates": [ -72.630054386312096, -38.7552939326361 ] } },
{ "type": "Feature", "properties": { "ID": 165.0, "RUT": "78319560-7", "NOMBRE": "COMERCIAL SERAFIN CHAVEZ Y CIA.LTDA.", "DIRECCION": "DAVID PERRY 0531,TEMUCO.", "GIRO": "FERRETERIA", "ESTADO": "POTENCIAL CLIENTE", "COMUNA": "TEMUCO", "REGION": "REGION DE LA ARAUCANIA", "MES": "INICIAL", "PAIS": "CONTINENTE", "x": -72.573834932300002, "y": -38.729681534100003 }, "geometry": { "type": "Point", "coordinates": [ -72.573834932278103, -38.729681534138798 ] } },
{ "type": "Feature", "properties": { "ID": 166.0, "RUT": "22244553-1", "NOMBRE": "CHEN FEIYUN", "DIRECCION": "DIEGO PORTALES 1130,TEMUCO.", "GIRO": "VENTA ARTICULOS DE FERRETERIA", "ESTADO": "POTENCIAL CLIENTE", "COMUNA": "TEMUCO", "REGION": "REGION DE LA ARAUCANIA", "MES": "INICIAL", "PAIS": "CONTINENTE", "x": -72.585772834699995, "y": -38.7381297413 }, "geometry": { "type": "Point", "coordinates": [ -72.585772834718199, -38.738129741275401 ] } },
{ "type": "Feature", "properties": { "ID": 167.0, "RUT": "07762212-8", "NOMBRE": "AGUILERA CORVALAN JUAN ARMIN", "DIRECCION": "DIEGO PORTALES 1139,TEMUCO.", "GIRO": "VENTA ACCESORIOS DE AUTOMOVILES", "ESTADO": "POTENCIAL CLIENTE", "COMUNA": "TEMUCO", "REGION": "REGION DE LA ARAUCANIA", "MES": "INICIAL", "PAIS": "CONTINENTE", "x": -72.585655998799993, "y": -38.737908825200002 }, "geometry": { "type": "Point", "coordinates": [ -72.585655998801599, -38.737908825208997 ] } },
{ "type": "Feature", "properties": { "ID": 168.0, "RUT": "76127189-K", "NOMBRE": "MULTISUR LTDA", "DIRECCION": "DIEGO PORTALES 1267,TEMUCO.", "GIRO": "FERRETERIA Y MATERIALES DE CONSTRUCCION", "ESTADO": "POTENCIAL CLIENTE", "COMUNA": "TEMUCO", "REGION": "REGION DE LA ARAUCANIA", "MES": "INICIAL", "PAIS": "CONTINENTE", "x": -72.583847861799995, "y": -38.738152605300002 }, "geometry": { "type": "Point", "coordinates": [ -72.5838478618398, -38.7381526052772 ] } },
{ "type": "Feature", "properties": { "ID": 169.0, "RUT": "77469229-0", "NOMBRE": "MANT Y REP VEHÍCULOS AUTOM EIRL,CRISTOBAL TORRES TORTELLA", "DIRECCION": "DOMINGO ROJAS TRIGO 820,TEMUCO.", "GIRO": "MANTENCIÓN, REPARACIÓN, VTA DE PARTES PIEZAS Y ACC AUTOMOT", "ESTADO": "POTENCIAL CLIENTE", "COMUNA": "TEMUCO", "REGION": "REGION DE LA ARAUCANIA", "MES": "INICIAL", "PAIS": "CONTINENTE", "x": -72.630271289099994, "y": -38.733308980799997 }, "geometry": { "type": "Point", "coordinates": [ -72.630271289070194, -38.733308980848598 ] } },
{ "type": "Feature", "properties": { "ID": 170.0, "RUT": "07643371-2", "NOMBRE": "MORA HIGUERA GUIDO BERTO", "DIRECCION": "ECUADOR 2050,TEMUCO.", "GIRO": "RPTOS.VEHIC.MOTORIZ.", "ESTADO": "POTENCIAL CLIENTE", "COMUNA": "TEMUCO", "REGION": "REGION DE LA ARAUCANIA", "MES": "INICIAL", "PAIS": "CONTINENTE", "x": -72.570329794000003, "y": -38.7222457998 }, "geometry": { "type": "Point", "coordinates": [ -72.570329794025696, -38.7222457998366 ] } },
{ "type": "Feature", "properties": { "ID": 171.0, "RUT": "77358055-3", "NOMBRE": "FERRETERIA Y MATERIALES CONSTRUCCION FERNANDO ALFREDO C EIRL", "DIRECCION": "ESTERO TRICAO 209,TEMUCO.", "GIRO": "FERRETERIA", "ESTADO": "POTENCIAL CLIENTE", "COMUNA": "TEMUCO", "REGION": "REGION DE LA ARAUCANIA", "MES": "INICIAL", "PAIS": "CONTINENTE", "x": -72.755528373700002, "y": -38.760779274500003 }, "geometry": { "type": "Point", "coordinates": [ -72.7555283736625, -38.7607792745493 ] } },
{ "type": "Feature", "properties": { "ID": 172.0, "RUT": "06529605-5", "NOMBRE": "STUARDO RIVAS LUIS ALBERTO", "DIRECCION": "FCO. SEPULVEDA 1166,TEMUCO.", "GIRO": "REP. AUTOMOVILES Y M", "ESTADO": "POTENCIAL CLIENTE", "COMUNA": "TEMUCO", "REGION": "REGION DE LA ARAUCANIA", "MES": "INICIAL", "PAIS": "CONTINENTE", "x": -72.633184330500001, "y": -38.736839379300001 }, "geometry": { "type": "Point", "coordinates": [ -72.6331843305409, -38.736839379338903 ] } },
{ "type": "Feature", "properties": { "ID": 173.0, "RUT": "77430286-7", "NOMBRE": "COMERCIAL REPUESTOS SUR SPA", "DIRECCION": "G. MACKENNA 486,TEMUCO.", "GIRO": "VENTA DE REPUESTOS AUTOMOTRICES", "ESTADO": "POTENCIAL CLIENTE", "COMUNA": "TEMUCO", "REGION": "REGION DE LA ARAUCANIA", "MES": "INICIAL", "PAIS": "CONTINENTE", "x": -72.586549743500001, "y": -38.738665330300002 }, "geometry": { "type": "Point", "coordinates": [ -72.586549743546399, -38.738665330317197 ] } },
{ "type": "Feature", "properties": { "ID": 174.0, "RUT": "77475480-6", "NOMBRE": "COMERCIALIZADORA VALENTINO LIMITADA", "DIRECCION": "GENERAL ALDUNATE 301,TEMUCO.", "GIRO": "FERRETERIA", "ESTADO": "POTENCIAL CLIENTE", "COMUNA": "TEMUCO", "REGION": "REGION DE LA ARAUCANIA", "MES": "INICIAL", "PAIS": "CONTINENTE", "x": -72.587145019600001, "y": -38.7368114318 }, "geometry": { "type": "Point", "coordinates": [ -72.587145019567302, -38.736811431754496 ] } },
{ "type": "Feature", "properties": { "ID": 175.0, "RUT": "77149585-0", "NOMBRE": "SERVICIOS A TERRENO RODRIGO RIFFO EIRL", "DIRECCION": "GENERAL CRUZ 128,TEMUCO.", "GIRO": "FERRETERIA", "ESTADO": "POTENCIAL CLIENTE", "COMUNA": "TEMUCO", "REGION": "REGION DE LA ARAUCANIA", "MES": "INICIAL", "PAIS": "CONTINENTE", "x": -72.5843486248, "y": -38.735437742599999 }, "geometry": { "type": "Point", "coordinates": [ -72.584348624783004, -38.735437742646397 ] } },
{ "type": "Feature", "properties": { "ID": 176.0, "RUT": "15247350-8", "NOMBRE": "SAEZ DE LA HOZ PABLO MIGUEL", "DIRECCION": "GENERAL FREIRE 1179,TEMUCO.", "GIRO": "TALLER DE MECANICA AUTOMOTRIZ Y VENTA DE REPUESTOS", "ESTADO": "POTENCIAL CLIENTE", "COMUNA": "TEMUCO", "REGION": "REGION DE LA ARAUCANIA", "MES": "INICIAL", "PAIS": "CONTINENTE", "x": -72.601179105100002, "y": -38.744066249399999 }, "geometry": { "type": "Point", "coordinates": [ -72.601179105123194, -38.744066249372601 ] } },
{ "type": "Feature", "properties": { "ID": 177.0, "RUT": "10109849-4", "NOMBRE": "RAMIREZ FERRADA SEBASTIAN SEGUNDO", "DIRECCION": "GENERAL FREIRE 1209,TEMUCO.", "GIRO": "TALLER REPARACION VEHICULOS", "ESTADO": "POTENCIAL CLIENTE", "COMUNA": "TEMUCO", "REGION": "REGION DE LA ARAUCANIA", "MES": "INICIAL", "PAIS": "CONTINENTE", "x": -72.601226090099999, "y": -38.744656353499998 }, "geometry": { "type": "Point", "coordinates": [ -72.601226090091799, -38.7446563534956 ] } },
{ "type": "Feature", "properties": { "ID": 178.0, "RUT": "04624881-3", "NOMBRE": "CIFUENTES SANHUEZA JOSE ALAMIRO", "DIRECCION": "GENERAL FREIRE 175,TEMUCO.", "GIRO": "MANTENIMIENTO Y REPARACION VEHICULOS AUTOMOTORES", "ESTADO": "POTENCIAL CLIENTE", "COMUNA": "TEMUCO", "REGION": "REGION DE LA ARAUCANIA", "MES": "INICIAL", "PAIS": "CONTINENTE", "x": -72.598614462499995, "y": -38.733587055199997 }, "geometry": { "type": "Point", "coordinates": [ -72.598614462520004, -38.7335870552362 ] } },
{ "type": "Feature", "properties": { "ID": 179.0, "RUT": "77337500-3", "NOMBRE": "DISTRIBUIDORA DE NEUMATICOS DEL SUR LTDA", "DIRECCION": "GENERAL LAGOS 308,TEMUCO.", "GIRO": "REPTOS.VEHIC.MOTORI.", "ESTADO": "POTENCIAL CLIENTE", "COMUNA": "TEMUCO", "REGION": "REGION DE LA ARAUCANIA", "MES": "INICIAL", "PAIS": "CONTINENTE", "x": -72.592613256199996, "y": -38.736124236499997 }, "geometry": { "type": "Point", "coordinates": [ -72.592613256182602, -38.736124236492998 ] } },
{ "type": "Feature", "properties": { "ID": 180.0, "RUT": "89890800-3", "NOMBRE": "AUTOMOTRIZ GOMA LTDA", "DIRECCION": "GENERAL MACKENNA 1030,TEMUCO.", "GIRO": "SERVICIO TECNICO AUTOMOTRIZ", "ESTADO": "POTENCIAL CLIENTE", "COMUNA": "TEMUCO", "REGION": "REGION DE LA ARAUCANIA", "MES": "INICIAL", "PAIS": "CONTINENTE", "x": -72.587994663000003, "y": -38.744293988099997 }, "geometry": { "type": "Point", "coordinates": [ -72.587994663011898, -38.744293988104502 ] } },
{ "type": "Feature", "properties": { "ID": 181.0, "RUT": "11689202-2", "NOMBRE": "ARÉVALO LAGOS ADA LETICIA", "DIRECCION": "GENERAL MACKENNA 108,TEMUCO.", "GIRO": "VENTA DE REPUESTOS Y ACCESORIOS PARA VEHICULOS", "ESTADO": "POTENCIAL CLIENTE", "COMUNA": "TEMUCO", "REGION": "REGION DE LA ARAUCANIA", "MES": "INICIAL", "PAIS": "CONTINENTE", "x": -72.585589091399996, "y": -38.734959593500001 }, "geometry": { "type": "Point", "coordinates": [ -72.585589091441506, -38.734959593473903 ] } },
{ "type": "Feature", "properties": { "ID": 182.0, "RUT": "05720722-1", "NOMBRE": "COFFRE WEISSE LUIS OSVALDO", "DIRECCION": "GENERAL MACKENNA 323,TEMUCO.", "GIRO": "FERRETERIA", "ESTADO": "POTENCIAL CLIENTE", "COMUNA": "TEMUCO", "REGION": "REGION DE LA ARAUCANIA", "MES": "INICIAL", "PAIS": "CONTINENTE", "x": -72.586090547400005, "y": -38.737149955600003 }, "geometry": { "type": "Point", "coordinates": [ -72.586090547369693, -38.737149955558102 ] } },
{ "type": "Feature", "properties": { "ID": 183.0, "RUT": "07024151-K", "NOMBRE": "GUTIERREZ LAGOS HERNAN SERGIO", "DIRECCION": "GENERAL MACKENNA 46,TEMUCO.", "GIRO": "REPTOS.VEHIC.MOTORIZ", "ESTADO": "POTENCIAL CLIENTE", "COMUNA": "TEMUCO", "REGION": "REGION DE LA ARAUCANIA", "MES": "INICIAL", "PAIS": "CONTINENTE", "x": -72.585464862799995, "y": -38.734311885799997 }, "geometry": { "type": "Point", "coordinates": [ -72.585464862769697, -38.734311885790198 ] } },
{ "type": "Feature", "properties": { "ID": 184.0, "RUT": "76883217-K", "NOMBRE": "NOVESUR LIMITADA", "DIRECCION": "GENERAL MACKENNA 477,TEMUCO.", "GIRO": "VENTA AL POR MENOR DE ARTICULOS DE FERRETERIA Y", "ESTADO": "POTENCIAL CLIENTE", "COMUNA": "TEMUCO", "REGION": "REGION DE LA ARAUCANIA", "MES": "INICIAL", "PAIS": "CONTINENTE", "x": -72.586218805200005, "y": -38.738773893000001 }, "geometry": { "type": "Point", "coordinates": [ -72.586218805184402, -38.738773893004101 ] } },
{ "type": "Feature", "properties": { "ID": 185.0, "RUT": "89515900-K", "NOMBRE": "RODAMENDEZ LTDA", "DIRECCION": "GENERAL MACKENNA 50,TEMUCO.", "GIRO": "MAQS.MOTORES Y REP.", "ESTADO": "POTENCIAL CLIENTE", "COMUNA": "TEMUCO", "REGION": "REGION DE LA ARAUCANIA", "MES": "INICIAL", "PAIS": "CONTINENTE", "x": -72.585523534000004, "y": -38.734376778300003 }, "geometry": { "type": "Point", "coordinates": [ -72.585523533962004, -38.734376778330599 ] } },
{ "type": "Feature", "properties": { "ID": 186.0, "RUT": "52001981-2", "NOMBRE": "IMARESE E.I.R.L.", "DIRECCION": "GENERAL MACKENNA 585,TEMUCO.", "GIRO": "COMERCIALIZACION MAQUINARIA Y REPUESTOS", "ESTADO": "POTENCIAL CLIENTE", "COMUNA": "TEMUCO", "REGION": "REGION DE LA ARAUCANIA", "MES": "INICIAL", "PAIS": "CONTINENTE", "x": -72.586522132300004, "y": -38.739845561499997 }, "geometry": { "type": "Point", "coordinates": [ -72.586522132274595, -38.739845561469799 ] } },
{ "type": "Feature", "properties": { "ID": 187.0, "RUT": "06857352-1", "NOMBRE": "MIRNA FLOR OÑATE CARES", "DIRECCION": "GENERAL MACKENNA 770,TEMUCO.", "GIRO": "MAQ MOTOR Y REPUEST.", "ESTADO": "POTENCIAL CLIENTE", "COMUNA": "TEMUCO", "REGION": "REGION DE LA ARAUCANIA", "MES": "INICIAL", "PAIS": "CONTINENTE", "x": -72.5872801047, "y": -38.741729428699998 }, "geometry": { "type": "Point", "coordinates": [ -72.587280104663606, -38.741729428671 ] } },
{ "type": "Feature", "properties": { "ID": 188.0, "RUT": "85184600-K", "NOMBRE": "CRUZ Y CIA LTDA", "DIRECCION": "GENERAL PRIETO SUR 902,TEMUCO.", "GIRO": "RPTOS.VEHIC.MOTOR", "ESTADO": "POTENCIAL CLIENTE", "COMUNA": "TEMUCO", "REGION": "REGION DE LA ARAUCANIA", "MES": "INICIAL", "PAIS": "CONTINENTE", "x": -72.602480347300002, "y": -38.741098161099998 }, "geometry": { "type": "Point", "coordinates": [ -72.602480347307093, -38.741098161149402 ] } },
{ "type": "Feature", "properties": { "ID": 189.0, "RUT": "76438447-4", "NOMBRE": "JORGE VERGARA CATRIAN Y OTROS LIMITADA", "DIRECCION": "GRAL. BLANCO ENCALADA 1020,TEMUCO.", "GIRO": "TALLER MECANICO", "ESTADO": "POTENCIAL CLIENTE", "COMUNA": "TEMUCO", "REGION": "REGION DE LA ARAUCANIA", "MES": "INICIAL", "PAIS": "CONTINENTE", "x": -72.599847405600002, "y": -38.742745956699999 }, "geometry": { "type": "Point", "coordinates": [ -72.599847405600698, -38.742745956696403 ] } },
{ "type": "Feature", "properties": { "ID": 190.0, "RUT": "15258177-7", "NOMBRE": "SANHUEZA HUIRIMILLA DANIEL ENRIQUE", "DIRECCION": "GRAL. CRUZ 401,TEMUCO.", "GIRO": "VENTA DE REPUESTOS AUTOMOTRICES", "ESTADO": "POTENCIAL CLIENTE", "COMUNA": "TEMUCO", "REGION": "REGION DE LA ARAUCANIA", "MES": "INICIAL", "PAIS": "CONTINENTE", "x": -72.584653574100003, "y": -38.738323661000003 }, "geometry": { "type": "Point", "coordinates": [ -72.584653574073101, -38.738323661019599 ] } },
{ "type": "Feature", "properties": { "ID": 191.0, "RUT": "76006768-7", "NOMBRE": "SOC. COMERCIAL CASA DEL ACCESORIO LTDA.", "DIRECCION": "GRAL. CRUZ 417,TEMUCO.", "GIRO": "VENTA ACCESORIOS VEHICULOS", "ESTADO": "POTENCIAL CLIENTE", "COMUNA": "TEMUCO", "REGION": "REGION DE LA ARAUCANIA", "MES": "INICIAL", "PAIS": "CONTINENTE", "x": -72.584592760999996, "y": -38.738491592899997 }, "geometry": { "type": "Point", "coordinates": [ -72.584592761013894, -38.7384915928534 ] } },
{ "type": "Feature", "properties": { "ID": 192.0, "RUT": "89375100-9", "NOMBRE": "DICOMA REPUESTOS LTDA.", "DIRECCION": "GRAL. CRUZ 423,TEMUCO.", "GIRO": "REP AUTOM Y MOTOCICL", "ESTADO": "POTENCIAL CLIENTE", "COMUNA": "TEMUCO", "REGION": "REGION DE LA ARAUCANIA", "MES": "INICIAL", "PAIS": "CONTINENTE", "x": -72.582295562699997, "y": -38.7293568455 }, "geometry": { "type": "Point", "coordinates": [ -72.582295562663802, -38.729356845518502 ] } },
{ "type": "Feature", "properties": { "ID": 193.0, "RUT": "11197494-2", "NOMBRE": "ITURRA BEIZA ALVARO LEANDRO", "DIRECCION": "GRAL. CRUZ 462,TEMUCO.", "GIRO": "VENTA DE REPUESTOS DE VEHICULOS", "ESTADO": "POTENCIAL CLIENTE", "COMUNA": "TEMUCO", "REGION": "REGION DE LA ARAUCANIA", "MES": "INICIAL", "PAIS": "CONTINENTE", "x": -72.585083748000002, "y": -38.738775787100003 }, "geometry": { "type": "Point", "coordinates": [ -72.585083747989501, -38.738775787145499 ] } },
{ "type": "Feature", "properties": { "ID": 194.0, "RUT": "76934970-7", "NOMBRE": "IMPORT.EXPORT.BUENO Y BARATO LTDA.", "DIRECCION": "GRAL. CRUZ 465,TEMUCO.", "GIRO": "COMPRA Y VTA.DE REPTOS.AUTOMOTRICES", "ESTADO": "POTENCIAL CLIENTE", "COMUNA": "TEMUCO", "REGION": "REGION DE LA ARAUCANIA", "MES": "INICIAL", "PAIS": "CONTINENTE", "x": -72.584847361499996, "y": -38.738858455699997 }, "geometry": { "type": "Point", "coordinates": [ -72.584847361535495, -38.738858455680102 ] } },
{ "type": "Feature", "properties": { "ID": 195.0, "RUT": "76261679-3", "NOMBRE": "SOCIEDAD CASTRO E HIJOS LIMITADA", "DIRECCION": "GRAL. CRUZ 525,TEMUCO.", "GIRO": "VENTA DE REPUESTOS AUTOMOTRIZ", "ESTADO": "POTENCIAL CLIENTE", "COMUNA": "TEMUCO", "REGION": "REGION DE LA ARAUCANIA", "MES": "INICIAL", "PAIS": "CONTINENTE", "x": -72.585030691699998, "y": -38.739432660799999 }, "geometry": { "type": "Point", "coordinates": [ -72.5850306916889, -38.739432660775897 ] } },
{ "type": "Feature", "properties": { "ID": 196.0, "RUT": "77888770-3", "NOMBRE": "COMERCIAL M Y C LIMITADA", "DIRECCION": "GRAL. CRUZ 535,TEMUCO.", "GIRO": "RESPUESTOS Y ACC. VEHICULOS", "ESTADO": "POTENCIAL CLIENTE", "COMUNA": "TEMUCO", "REGION": "REGION DE LA ARAUCANIA", "MES": "INICIAL", "PAIS": "CONTINENTE", "x": -72.585027619200005, "y": -38.739472118800002 }, "geometry": { "type": "Point", "coordinates": [ -72.585027619175406, -38.739472118766301 ] } },
{ "type": "Feature", "properties": { "ID": 197.0, "RUT": "04251927-8", "NOMBRE": "SABIRON GRANDON ALFONSO", "DIRECCION": "GRAL. CRUZ 576,TEMUCO.", "GIRO": "RPTOS.VEHIC.MOTORIZ.", "ESTADO": "POTENCIAL CLIENTE", "COMUNA": "TEMUCO", "REGION": "REGION DE LA ARAUCANIA", "MES": "INICIAL", "PAIS": "CONTINENTE", "x": -72.585389489899995, "y": -38.739664855599997 }, "geometry": { "type": "Point", "coordinates": [ -72.585389489907797, -38.739664855585801 ] } },
{ "type": "Feature", "properties": { "ID": 198.0, "RUT": "76484488-2", "NOMBRE": "COMERCIAL CASA DEL FRENO LIMITADA", "DIRECCION": "GRAL.CRUZ 534,TEMUCO.", "GIRO": "VENTA DE REPUESTOS PARA VEHICULOS Y MOTOS", "ESTADO": "POTENCIAL CLIENTE", "COMUNA": "TEMUCO", "REGION": "REGION DE LA ARAUCANIA", "MES": "INICIAL", "PAIS": "CONTINENTE", "x": -72.585312234300005, "y": -38.739554692799999 }, "geometry": { "type": "Point", "coordinates": [ -72.585312234276003, -38.739554692823198 ] } },
{ "type": "Feature", "properties": { "ID": 199.0, "RUT": "76953659-0", "NOMBRE": "LUBRICANTES NORMA INES MORALES PILQUINAO EIRL", "DIRECCION": "JAVIERA CARRERA 0255,TEMUCO.", "GIRO": "LUBRICENTRO, VENTA DE LUBRICANTES Y ACCESORIOS AUTOMOTRIZ", "ESTADO": "POTENCIAL CLIENTE", "COMUNA": "TEMUCO", "REGION": "REGION DE LA ARAUCANIA", "MES": "INICIAL", "PAIS": "CONTINENTE", "x": -72.624259247699996, "y": -38.721368043399998 }, "geometry": { "type": "Point", "coordinates": [ -72.624259247718001, -38.721368043366901 ] } },
{ "type": "Feature", "properties": { "ID": 200.0, "RUT": "08651282-3", "NOMBRE": "VERGARA RIFFO JOSE LUIS", "DIRECCION": "LAS CAMELIAS 1354,TEMUCO.", "GIRO": "FERRETERIA", "ESTADO": "POTENCIAL CLIENTE", "COMUNA": "TEMUCO", "REGION": "REGION DE LA ARAUCANIA", "MES": "INICIAL", "PAIS": "CONTINENTE", "x": -72.606615276200003, "y": -38.744463364700003 }, "geometry": { "type": "Point", "coordinates": [ -72.606615276217894, -38.744463364706696 ] } },
{ "type": "Feature", "properties": { "ID": 201.0, "RUT": "06083749-K", "NOMBRE": "BACHSMANN HENRIQUEZ MODESTO AVELINO", "DIRECCION": "LAS HERAS 966,TEMUCO.", "GIRO": "REP.AUTOMOV.Y MOTOC.", "ESTADO": "POTENCIAL CLIENTE", "COMUNA": "TEMUCO", "REGION": "REGION DE LA ARAUCANIA", "MES": "INICIAL", "PAIS": "CONTINENTE", "x": -72.597147147499996, "y": -38.742435393199997 }, "geometry": { "type": "Point", "coordinates": [ -72.597147147526599, -38.742435393177203 ] } },
{ "type": "Feature", "properties": { "ID": 202.0, "RUT": "09997148-7", "NOMBRE": "VALENZUELA VALDIVIA PATRICIA ALEJANDRA", "DIRECCION": "LAUTARO 1156,TEMUCO.", "GIRO": "VTA.REP.Y ACCESORIOS VEHICULOS", "ESTADO": "POTENCIAL CLIENTE", "COMUNA": "TEMUCO", "REGION": "REGION DE LA ARAUCANIA", "MES": "INICIAL", "PAIS": "CONTINENTE", "x": -72.584952019100001, "y": -38.736071024300003 }, "geometry": { "type": "Point", "coordinates": [ -72.584952019136693, -38.736071024309702 ] } },
{ "type": "Feature", "properties": { "ID": 203.0, "RUT": "76232962-K", "NOMBRE": "COMERCIAL Y SERVICIOS GERONIMO CID ZUNINO EIRL", "DIRECCION": "LAUTARO 1209,TEMUCO.", "GIRO": "VTA. RPTOS. VEHICUL.", "ESTADO": "POTENCIAL CLIENTE", "COMUNA": "TEMUCO", "REGION": "REGION DE LA ARAUCANIA", "MES": "INICIAL", "PAIS": "CONTINENTE", "x": -72.583997604800004, "y": -38.736063555100003 }, "geometry": { "type": "Point", "coordinates": [ -72.583997604756505, -38.736063555114903 ] } },
{ "type": "Feature", "properties": { "ID": 204.0, "RUT": "07275022-5", "NOMBRE": "QUIÑELEN IGNACIO JOSE VICTOR", "DIRECCION": "LAUTARO 1241,TEMUCO.", "GIRO": "VENTA REPUESTOS Y ACC. VEHICULOS", "ESTADO": "POTENCIAL CLIENTE", "COMUNA": "TEMUCO", "REGION": "REGION DE LA ARAUCANIA", "MES": "INICIAL", "PAIS": "CONTINENTE", "x": -72.583695920599993, "y": -38.736057393000003 }, "geometry": { "type": "Point", "coordinates": [ -72.583695920608093, -38.736057392977102 ] } },
{ "type": "Feature", "properties": { "ID": 205.0, "RUT": "14221579-9", "NOMBRE": "ROSAS BENAVENTE VICTOR ANDRES", "DIRECCION": "LAUTARO 1285,TEMUCO.", "GIRO": "FERRETERÍA Y ART. ELECTRÓNICOS EN GENERAL", "ESTADO": "POTENCIAL CLIENTE", "COMUNA": "TEMUCO", "REGION": "REGION DE LA ARAUCANIA", "MES": "INICIAL", "PAIS": "CONTINENTE", "x": -72.583138903000005, "y": -38.7361436865 }, "geometry": { "type": "Point", "coordinates": [ -72.583138903019403, -38.736143686465702 ] } },
{ "type": "Feature", "properties": { "ID": 206.0, "RUT": "05210001-1", "NOMBRE": "FLORES RODRIGUEZ OMAR", "DIRECCION": "LAUTARO 1292,TEMUCO.", "GIRO": "REP.AUTOMOV.Y MOTOC.", "ESTADO": "POTENCIAL CLIENTE", "COMUNA": "TEMUCO", "REGION": "REGION DE LA ARAUCANIA", "MES": "INICIAL", "PAIS": "CONTINENTE", "x": -72.583211989600002, "y": -38.736441323999998 }, "geometry": { "type": "Point", "coordinates": [ -72.583211989610902, -38.736441323966197 ] } },
{ "type": "Feature", "properties": { "ID": 207.0, "RUT": "05210001-1", "NOMBRE": "FLORES RODRIGUEZ OMAR", "DIRECCION": "LAUTARO 1298,TEMUCO.", "GIRO": "VENTA DE REPUESTOS Y ACCESORIOS DE VEHICULOS MOTORIZADOS", "ESTADO": "POTENCIAL CLIENTE", "COMUNA": "TEMUCO", "REGION": "REGION DE LA ARAUCANIA", "MES": "INICIAL", "PAIS": "CONTINENTE", "x": -72.583172834199999, "y": -38.736391530200002 }, "geometry": { "type": "Point", "coordinates": [ -72.583172834181198, -38.736391530207399 ] } },
{ "type": "Feature", "properties": { "ID": 208.0, "RUT": "77205920-5", "NOMBRE": "IMPORTADORA COMERCIAL FAMARI LIMITADA", "DIRECCION": "LAUTARO 1321,TEMUCO.", "GIRO": "FERRETERIA, VTA.HERRAMIENTAS", "ESTADO": "POTENCIAL CLIENTE", "COMUNA": "TEMUCO", "REGION": "REGION DE LA ARAUCANIA", "MES": "INICIAL", "PAIS": "CONTINENTE", "x": -72.582656704800002, "y": -38.7362921239 }, "geometry": { "type": "Point", "coordinates": [ -72.5826567047596, -38.736292123919903 ] } },
{ "type": "Feature", "properties": { "ID": 209.0, "RUT": "89619100-4", "NOMBRE": "RIQUELME HNOS.LTDA.", "DIRECCION": "LAUTARO 1414,TEMUCO.", "GIRO": "FERRET.ALM.PINT.HERR", "ESTADO": "POTENCIAL CLIENTE", "COMUNA": "TEMUCO", "REGION": "REGION DE LA ARAUCANIA", "MES": "INICIAL", "PAIS": "CONTINENTE", "x": -72.581320704700005, "y": -38.736688830600002 }, "geometry": { "type": "Point", "coordinates": [ -72.581320704692502, -38.736688830575702 ] } },